~Version Information
VERS. 2.0 : CWLS LOG ASCII STANDARD - VERSION 2.0
WRAP. NO : One line per depth step

SLVN.  2.14.3.1 (64bit) : Silistener Version Number
DTVN. Ultima: 8.1.18.0 (64bit) : DTS Version Number

~Well Information
#MNEM.UNIT VALUE/NAME :DESCRIPTION 
STRT.M -0 : START DEPTH
STOP.M 5498.8389 : STOP DEPTH
STEP.M 0.5084 : STEP
NULL.M -9999 : NULL VALUE
COMP. EBS : COMPANY
WELL. EBST-4-3H : WELL
FLD. EBS_MOC : FIELD
LOC. S2_CAMP : LOCATION
SRVC.  : SERVICE COMPANY
DATE. 01/05/2023 : LOG DATE
CNTY.  : COUNTY
STAT.  : STATE
CTRY.  : COUNTRY
API.  : API NUMBER

~Curve Information
#MNEM.UNITS API CODES :DESCRIPTION OF MNEMONIC
DEPT.M	: Depth
TEMP.°C	: Baseline
TEMP.°C	: Fast (10s)

~Parameter Information
#MNEM.UNIT VALUE/NAME :DESCRIPTION 
DTSF. 1.000000 : DTS Stretch Factor
DTZO.M 0.00 : DTS Zero Offset

~A Log Data
# ...
4491.1929 Inf 77.6050
4491.7012 Inf 78.1730
4492.2095 Inf 78.0830
4492.7178 Inf 78.0180
4493.2266 Inf 77.9880
4493.7349 Inf 78.5120
4494.2432 Inf 77.5000
4494.7515 Inf 77.6210
4495.2598 Inf 78.6860
4495.7686 Inf 78.5370
4496.2769 Inf 77.4060
4496.7852 Inf 77.7690
4497.2935 Inf 77.7910
4497.8018 Inf 78.4880
4498.3105 Inf 77.7210
4498.8188 Inf 77.2900
4499.3271 Inf 78.2540
4499.8354 Inf 78.2520
4500.3442 Inf 77.4130
4500.8525 Inf 77.3140
4501.3608 Inf 78.1320
4501.8691 Inf 78.4130
4502.3774 Inf 77.2260
4502.8862 Inf 77.7280
4503.3945 Inf 77.3320
4503.9028 Inf 78.0590
4504.4111 Inf 77.1810
4504.9194 Inf 77.5960
4505.4282 Inf 78.2130
4505.9365 Inf 78.1470
4506.4448 Inf 78.4000
4506.9531 Inf 77.9500
4507.4614 Inf 77.5470
4507.9702 Inf 77.6940
4508.4785 Inf 77.8180
4508.9868 Inf 77.4090
4509.4951 Inf 78.0890
4510.0034 Inf 78.2120
4510.5122 Inf 78.8700
4511.0205 Inf 78.0250
4511.5288 Inf 77.6400
4512.0371 Inf 78.3130
4512.5454 Inf 78.8340
4513.0537 Inf 77.7820
4513.5625 Inf 78.1390
4514.0708 Inf 78.0820
4514.5791 Inf 77.8540
4515.0874 Inf 78.0930
4515.5957 Inf 78.3910
4516.1045 Inf 77.8400
4516.6128 Inf 77.8500
4517.1211 Inf 77.8680
4517.6294 Inf 77.8830
4518.1377 Inf 77.8210
4518.6465 Inf 77.6500
4519.1548 Inf 77.4520
4519.6631 Inf 78.1910
4520.1714 Inf 77.3380
4520.6797 Inf 77.9130
4521.1885 Inf 78.5000
4521.6968 Inf 77.8920
4522.2051 Inf 77.9920
4522.7134 Inf 78.8100
4523.2217 Inf 77.6110
4523.7305 Inf 77.4650
4524.2388 Inf 77.3270
4524.7471 Inf 77.8830
4525.2554 Inf 76.9430
4525.7637 Inf 76.8430
4526.2725 Inf 77.8770
4526.7808 Inf 77.9880
4527.2891 Inf 77.2330
4527.7974 Inf 78.3190
4528.3057 Inf 77.9090
4528.8145 Inf 78.4430
4529.3228 Inf 78.1110
4529.8311 Inf 77.6770
4530.3394 Inf 77.7360
4530.8477 Inf 78.1870
4531.3564 Inf 78.2240
4531.8647 Inf 77.4700
4532.3730 Inf 77.5510
4532.8813 Inf 77.5230
4533.3901 Inf 77.9550
4533.8984 Inf 77.6040
4534.4067 Inf 77.9130
4534.9150 Inf 78.1550
4535.4233 Inf 77.7310
4535.9321 Inf 77.7410
4536.4404 Inf 77.2960
4536.9487 Inf 77.8370
4537.4570 Inf 78.3660
4537.9653 Inf 78.3810
4538.4741 Inf 77.9020
4538.9824 Inf 77.9620
4539.4907 Inf 77.6890
4539.9990 Inf 77.5610
4540.5073 Inf 77.4330
4541.0161 Inf 78.5420
4541.5244 Inf 78.3810
4542.0327 Inf 78.2910
4542.5410 Inf 77.9470
4543.0493 Inf 78.1410
4543.5581 Inf 78.4750
4544.0664 Inf 78.2670
4544.5747 Inf 77.8570
4545.0830 Inf 77.9730
4545.5913 Inf 77.5770
4546.0996 Inf 77.1750
4546.6084 Inf 77.8200
4547.1167 Inf 77.9470
4547.6250 Inf 77.5310
4548.1333 Inf 78.0960
4548.6416 Inf 77.6530
4549.1504 Inf 78.0760
4549.6587 Inf 78.0180
4550.1670 Inf 77.8530
4550.6753 Inf 77.4180
4551.1836 Inf 78.1070
4551.6924 Inf 76.9200
4552.2007 Inf 78.1560
4552.7090 Inf 78.5950
4553.2173 Inf 77.7960
4553.7256 Inf 77.9870
4554.2344 Inf 78.1500
4554.7427 Inf 78.2450
4555.2510 Inf 77.8260
4555.7593 Inf 77.9170
4556.2676 Inf 77.4610
4556.7764 Inf 77.2200
4557.2847 Inf 77.5700
4557.7930 Inf 77.7760
4558.3013 Inf 78.5100
4558.8096 Inf 78.5200
4559.3184 Inf 77.9740
4559.8267 Inf 77.8160
4560.3350 Inf 77.8330
4560.8433 Inf 78.2580
4561.3516 Inf 78.2060
4561.8604 Inf 77.9870
4562.3687 Inf 77.9940
4562.8770 Inf 77.7980
4563.3853 Inf 78.8930
4563.8940 Inf 77.7880
4564.4023 Inf 78.0710
4564.9106 Inf 77.9230
4565.4189 Inf 78.2340
4565.9272 Inf 77.6120
4566.4360 Inf 78.1190
4566.9443 Inf 78.2530
4567.4526 Inf 77.6650
4567.9609 Inf 78.1010
4568.4692 Inf 78.1050
4568.9780 Inf 77.4970
4569.4863 Inf 77.9210
4569.9946 Inf 78.6010
4570.5029 Inf 78.5070
4571.0112 Inf 77.9290
4571.5200 Inf 77.4080
4572.0283 Inf 77.8700
4572.5366 Inf 77.7740
4573.0449 Inf 77.6040
4573.5532 Inf 77.6950
4574.0620 Inf 77.7120
4574.5703 Inf 77.8820
4575.0786 Inf 77.9830
4575.5869 Inf 77.6760
4576.0952 Inf 77.3490
4576.6040 Inf 77.7240
4577.1123 Inf 78.2030
4577.6206 Inf 77.8430
4578.1289 Inf 77.7520
4578.6372 Inf 77.7210
4579.1460 Inf 78.3700
4579.6543 Inf 77.9150
4580.1626 Inf 77.0760
4580.6709 Inf 77.5670
4581.1792 Inf 77.6760
4581.6875 Inf 78.3600
4582.1963 Inf 77.9710
4582.7046 Inf 78.1220
4583.2129 Inf 78.1160
4583.7212 Inf 78.3080
4584.2295 Inf 77.6820
4584.7383 Inf 77.5260
4585.2466 Inf 77.9420
4585.7549 Inf 77.6360
4586.2632 Inf 77.5820
4586.7715 Inf 77.4970
4587.2803 Inf 77.5790
4587.7886 Inf 78.2910
4588.2969 Inf 78.7340
4588.8052 Inf 77.7060
4589.3135 Inf 78.2000
4589.8223 Inf 78.7120
4590.3306 Inf 78.4020
4590.8389 Inf 77.1560
4591.3472 Inf 78.2550
4591.8555 Inf 77.9230
4592.3643 Inf 77.9600
4592.8726 Inf 77.6620
4593.3809 Inf 77.9340
4593.8892 Inf 78.0010
4594.3975 Inf 78.1130
4594.9062 Inf 78.0500
4595.4146 Inf 77.7630
4595.9229 Inf 77.3450
4596.4312 Inf 77.5350
4596.9399 Inf 78.3090
4597.4482 Inf 77.8380
4597.9565 Inf 78.1740
4598.4648 Inf 78.5860
4598.9731 Inf 78.2510
4599.4819 Inf 77.4820
4599.9902 Inf 77.4810
4600.4985 Inf 77.2740
4601.0068 Inf 77.7700
4601.5151 Inf 77.5870
4602.0239 Inf 78.0480
4602.5322 Inf 77.4630
4603.0405 Inf 77.5640
4603.5488 Inf 78.2040
4604.0571 Inf 77.8130
4604.5659 Inf 77.3130
4605.0742 Inf 77.8870
4605.5825 Inf 78.5430
4606.0908 Inf 78.8080
4606.5991 Inf 77.3260
4607.1079 Inf 78.1620
4607.6162 Inf 78.4150
4608.1245 Inf 78.3410
4608.6328 Inf 77.7780
4609.1411 Inf 78.0230
4609.6499 Inf 77.8800
4610.1582 Inf 78.3230
4610.6665 Inf 77.7270
4611.1748 Inf 77.6510
4611.6831 Inf 78.5160
4612.1919 Inf 78.0890
4612.7002 Inf 77.8740
4613.2085 Inf 76.5500
4613.7168 Inf 76.7150
4614.2251 Inf 77.9110
4614.7339 Inf 78.5990
4615.2422 Inf 77.1630
4615.7505 Inf 77.7610
4616.2588 Inf 77.8590
4616.7671 Inf 78.0210
4617.2754 Inf 78.5120
4617.7842 Inf 78.5150
4618.2925 Inf 78.2740
4618.8008 Inf 78.4920
4619.3091 Inf 78.1590
4619.8174 Inf 77.9230
4620.3262 Inf 77.8050
4620.8345 Inf 78.2750
4621.3428 Inf 77.7140
4621.8511 Inf 78.3100
4622.3594 Inf 78.7220
4622.8682 Inf 77.9460
4623.3765 Inf 76.9210
4623.8848 Inf 77.1620
4624.3931 Inf 77.4660
4624.9014 Inf 77.6950
4625.4102 Inf 78.2240
4625.9185 Inf 78.0060
4626.4268 Inf 78.1570
4626.9351 Inf 77.8870
4627.4434 Inf 77.9530
4627.9521 Inf 78.1460
4628.4604 Inf 77.8120
4628.9687 Inf 78.3650
4629.4771 Inf 77.7350
4629.9858 Inf 77.4380
4630.4941 Inf 77.8710
4631.0024 Inf 77.2790
4631.5107 Inf 77.6650
4632.0190 Inf 77.5390
4632.5278 Inf 77.6760
4633.0361 Inf 78.9270
4633.5444 Inf 77.9490
4634.0527 Inf 78.0330
4634.5610 Inf 77.7590
4635.0698 Inf 76.8920
4635.5781 Inf 77.9490
4636.0864 Inf 78.6390
4636.5947 Inf 78.3690
4637.1030 Inf 77.8820
4637.6118 Inf 78.0560
4638.1201 Inf 77.5670
4638.6284 Inf 77.8480
4639.1367 Inf 77.8620
4639.6450 Inf 77.7550
4640.1538 Inf 77.4710
4640.6621 Inf 77.5210
4641.1704 Inf 77.7570
4641.6787 Inf 77.7740
4642.1870 Inf 78.0320
4642.6958 Inf 77.5930
4643.2041 Inf 77.7640
4643.7124 Inf 78.6690
4644.2207 Inf 77.8260
4644.7290 Inf 77.4840
4645.2378 Inf 78.4150
4645.7461 Inf 78.1550
4646.2544 Inf 77.1340
4646.7627 Inf 78.1360
4647.2710 Inf 78.1280
4647.7798 Inf 78.0040
4648.2881 Inf 78.0890
4648.7964 Inf 78.5180
4649.3047 Inf 78.1310
4649.8130 Inf 78.0790
4650.3218 Inf 77.3260
4650.8301 Inf 77.8380
4651.3384 Inf 78.7070
4651.8467 Inf 78.3550
4652.3550 Inf 77.6070
4652.8633 Inf 77.9710
4653.3721 Inf 77.9820
4653.8804 Inf 78.0210
4654.3887 Inf 78.5870
4654.8970 Inf 77.6690
4655.4053 Inf 77.5150
4655.9141 Inf 78.2540
4656.4224 Inf 77.8880
4656.9307 Inf 78.0230
4657.4390 Inf 77.2250
4657.9473 Inf 77.9320
4658.4561 Inf 78.1960
4658.9644 Inf 78.4450
4659.4727 Inf 78.7140
4659.9810 Inf 79.1470
4660.4893 Inf 78.0500
4660.9980 Inf 78.0240
4661.5063 Inf 78.3560
4662.0146 Inf 77.9280
4662.5229 Inf 77.6380
4663.0317 Inf 77.5090
4663.5400 Inf 77.6820
4664.0483 Inf 77.0580
4664.5566 Inf 78.5490
4665.0649 Inf 78.0310
4665.5737 Inf 78.2070
4666.0820 Inf 77.9550
4666.5903 Inf 78.3350
4667.0986 Inf 78.0890
4667.6069 Inf 78.7840
4668.1157 Inf 78.0350
4668.6240 Inf 78.3480
4669.1323 Inf 78.3710
4669.6406 Inf 78.1150
4670.1489 Inf 78.3130
4670.6577 Inf 77.9020
4671.1660 Inf 77.3550
4671.6743 Inf 77.3840
4672.1826 Inf 77.3930
4672.6909 Inf 78.3170
4673.1997 Inf 78.1330
4673.7080 Inf 78.0480
4674.2163 Inf 78.3170
4674.7246 Inf 78.4760
4675.2329 Inf 77.3380
4675.7417 Inf 77.8790
