~Version Information
VERS. 2.0 : CWLS LOG ASCII STANDARD - VERSION 2.0
WRAP. NO : One line per depth step

SLVN.  2.14.3.1 (64bit) : Silistener Version Number
DTVN. Ultima: 8.1.18.0 (64bit) : DTS Version Number

~Well Information
#MNEM.UNIT VALUE/NAME :DESCRIPTION 
STRT.M -0 : START DEPTH
STOP.M 5498.8389 : STOP DEPTH
STEP.M 0.5084 : STEP
NULL.M -9999 : NULL VALUE
COMP. EBS : COMPANY
WELL. EBST-4-3H : WELL
FLD. EBS_MOC : FIELD
LOC. S2_CAMP : LOCATION
SRVC.  : SERVICE COMPANY
DATE. 01/05/2023 : LOG DATE
CNTY.  : COUNTY
STAT.  : STATE
CTRY.  : COUNTRY
API.  : API NUMBER

~Curve Information
#MNEM.UNITS API CODES :DESCRIPTION OF MNEMONIC
DEPT.M	: Depth
TEMP.°C	: Baseline
TEMP.°C	: Fast (10s)

~Parameter Information
#MNEM.UNIT VALUE/NAME :DESCRIPTION 
DTSF. 1.000000 : DTS Stretch Factor
DTZO.M 0.00 : DTS Zero Offset

~A Log Data
# ...
780.3918 Inf 25.1160
780.9002 Inf 25.4040
781.4086 Inf 25.4770
781.9170 Inf 25.4800
782.4254 Inf 25.2920
782.9338 Inf 25.4640
783.4422 Inf 25.4960
783.9506 Inf 25.4910
784.4590 Inf 25.4500
784.9674 Inf 25.5850
785.4758 Inf 25.3290
785.9842 Inf 25.3330
786.4926 Inf 25.3130
787.0010 Inf 25.0980
787.5094 Inf 25.1490
788.0178 Inf 25.3520
788.5262 Inf 25.3410
789.0346 Inf 25.4670
789.5430 Inf 25.5020
790.0513 Inf 25.5510
790.5597 Inf 25.5380
791.0681 Inf 25.4470
791.5765 Inf 25.3830
792.0849 Inf 25.3040
792.5933 Inf 25.4010
793.1017 Inf 25.4120
793.6101 Inf 25.1620
794.1185 Inf 25.1710
794.6269 Inf 25.3420
795.1353 Inf 25.2250
795.6437 Inf 25.2190
796.1521 Inf 25.4650
796.6605 Inf 25.3790
797.1689 Inf 25.5990
797.6773 Inf 25.4270
798.1857 Inf 25.3860
798.6941 Inf 25.4050
799.2025 Inf 25.2640
799.7109 Inf 25.3090
800.2193 Inf 25.1920
800.7277 Inf 25.0390
801.2361 Inf 25.1050
801.7445 Inf 25.2490
802.2529 Inf 25.1650
802.7613 Inf 25.1330
803.2697 Inf 25.4860
803.7781 Inf 25.3930
804.2865 Inf 25.4880
804.7949 Inf 25.3970
805.3033 Inf 25.5680
805.8117 Inf 25.3300
806.3201 Inf 25.2050
806.8285 Inf 25.1990
807.3369 Inf 24.9180
807.8453 Inf 25.0360
808.3537 Inf 25.0850
808.8621 Inf 25.0460
809.3705 Inf 25.2030
809.8789 Inf 25.1970
810.3873 Inf 25.4900
810.8957 Inf 25.3510
811.4041 Inf 25.3910
811.9125 Inf 25.3630
812.4209 Inf 25.1100
812.9293 Inf 24.9460
813.4377 Inf 25.0020
813.9461 Inf 24.9200
814.4545 Inf 24.8130
814.9629 Inf 25.1070
815.4713 Inf 25.1810
815.9797 Inf 25.0280
816.4881 Inf 25.1470
816.9965 Inf 25.3910
817.5049 Inf 25.3890
818.0133 Inf 25.3580
818.5217 Inf 25.3420
819.0301 Inf 25.1540
819.5385 Inf 25.1740
820.0469 Inf 25.0540
820.5553 Inf 24.9420
821.0637 Inf 24.8740
821.5721 Inf 24.9360
822.0805 Inf 24.8700
822.5889 Inf 25.0850
823.0973 Inf 25.2090
823.6057 Inf 25.3800
824.1141 Inf 25.2590
824.6225 Inf 25.1850
825.1308 Inf 25.1080
825.6392 Inf 25.3880
826.1476 Inf 25.3310
826.6560 Inf 25.0070
827.1644 Inf 24.9980
827.6728 Inf 24.8170
828.1812 Inf 24.9520
828.6896 Inf 25.1660
829.1980 Inf 25.1350
829.7064 Inf 25.0080
830.2148 Inf 25.0140
830.7232 Inf 25.2070
831.2316 Inf 25.1610
831.7400 Inf 25.1940
832.2484 Inf 25.1740
832.7568 Inf 25.1220
833.2652 Inf 24.9320
833.7736 Inf 24.8620
834.2820 Inf 24.8390
834.7904 Inf 24.8510
835.2988 Inf 24.9000
835.8072 Inf 24.8780
836.3156 Inf 25.0120
836.8240 Inf 25.1960
837.3324 Inf 25.2050
837.8408 Inf 24.9540
838.3492 Inf 24.9440
838.8576 Inf 24.9640
839.3660 Inf 24.9390
839.8744 Inf 24.8790
840.3828 Inf 24.8710
840.8912 Inf 24.7240
841.3996 Inf 24.8500
841.9080 Inf 24.8290
842.4164 Inf 24.8300
842.9248 Inf 24.9970
843.4332 Inf 24.8790
843.9416 Inf 25.1460
844.4500 Inf 24.9450
844.9584 Inf 24.9350
845.4668 Inf 24.7550
845.9752 Inf 24.8830
846.4836 Inf 24.5750
846.9920 Inf 24.7230
847.5004 Inf 24.6440
848.0088 Inf 24.4300
848.5172 Inf 24.5970
849.0256 Inf 24.4820
849.5340 Inf 24.6780
850.0424 Inf 24.8060
850.5508 Inf 24.8100
851.0592 Inf 24.8330
851.5676 Inf 24.6470
852.0760 Inf 24.8200
852.5844 Inf 24.7150
853.0928 Inf 24.9300
853.6012 Inf 24.4210
854.1096 Inf 24.6330
854.6180 Inf 24.6840
855.1264 Inf 24.5130
855.6348 Inf 24.4240
856.1432 Inf 24.6350
856.6516 Inf 24.5230
857.1600 Inf 24.6950
857.6684 Inf 24.7960
858.1768 Inf 24.6560
858.6852 Inf 24.5590
859.1936 Inf 24.6040
859.7020 Inf 24.5020
860.2103 Inf 24.3710
860.7187 Inf 24.2670
861.2271 Inf 24.3480
861.7355 Inf 24.1790
862.2439 Inf 24.2470
862.7523 Inf 24.4420
863.2607 Inf 24.4650
863.7691 Inf 24.2580
864.2775 Inf 24.4770
864.7859 Inf 24.4820
865.2943 Inf 24.6120
865.8027 Inf 24.6360
866.3111 Inf 24.3340
866.8195 Inf 24.2070
867.3279 Inf 24.3480
867.8363 Inf 24.2080
868.3447 Inf 24.2420
868.8531 Inf 23.9550
869.3615 Inf 23.8640
869.8699 Inf 23.8690
870.3783 Inf 24.0490
870.8867 Inf 24.0140
871.3951 Inf 24.0030
871.9035 Inf 24.0500
872.4119 Inf 24.1590
872.9203 Inf 23.9430
873.4287 Inf 23.8960
873.9371 Inf 23.8340
874.4455 Inf 23.5840
874.9539 Inf 23.3580
875.4623 Inf 22.9900
875.9707 Inf 22.9850
876.4791 Inf 23.1190
876.9875 Inf 23.3520
877.4959 Inf 23.4670
878.0043 Inf 23.3840
878.5127 Inf 23.2660
879.0211 Inf 23.1430
879.5295 Inf 22.8310
880.0379 Inf 22.5070
880.5463 Inf 22.2850
881.0547 Inf 22.2420
881.5631 Inf 22.0200
882.0715 Inf 21.3970
882.5799 Inf 21.1990
883.0883 Inf 21.3700
883.5967 Inf 21.6280
884.1051 Inf 21.7030
884.6135 Inf 21.8670
885.1219 Inf 22.0520
885.6303 Inf 22.2450
886.1387 Inf 22.0480
886.6471 Inf 22.3220
887.1555 Inf 22.4250
887.6639 Inf 22.6660
888.1723 Inf 22.2510
888.6807 Inf 21.9030
889.1891 Inf 21.8030
889.6975 Inf 21.7130
890.2059 Inf 21.7830
890.7143 Inf 22.0740
891.2227 Inf 22.5360
891.7311 Inf 22.8810
892.2395 Inf 22.7850
892.7479 Inf 22.9560
893.2563 Inf 23.2820
893.7647 Inf 23.7260
894.2731 Inf 23.7370
894.7815 Inf 23.5750
895.2898 Inf 23.4680
895.7982 Inf 23.2920
896.3066 Inf 23.0630
896.8150 Inf 23.1470
897.3234 Inf 23.2840
897.8318 Inf 23.3500
898.3402 Inf 23.4920
898.8486 Inf 23.6230
899.3570 Inf 23.6570
899.8654 Inf 23.8600
900.3738 Inf 23.9240
900.8822 Inf 24.0920
901.3906 Inf 24.0480
901.8990 Inf 24.1810
902.4074 Inf 23.9850
902.9158 Inf 23.8180
903.4242 Inf 23.7710
903.9326 Inf 23.6820
904.4410 Inf 23.7180
904.9494 Inf 24.0460
905.4578 Inf 24.3720
905.9662 Inf 24.1630
906.4746 Inf 24.1500
906.9830 Inf 24.3840
907.4914 Inf 24.5320
907.9998 Inf 24.3880
908.5082 Inf 24.2350
909.0166 Inf 24.1540
909.5250 Inf 24.2960
910.0334 Inf 24.2170
910.5418 Inf 24.0450
911.0502 Inf 24.2900
911.5586 Inf 24.3470
912.0670 Inf 24.3930
912.5754 Inf 24.5870
913.0838 Inf 24.8700
913.5922 Inf 24.7170
914.1006 Inf 24.5520
914.6090 Inf 24.4930
915.1174 Inf 24.5120
915.6258 Inf 24.5340
916.1342 Inf 24.3990
916.6426 Inf 24.2980
917.1510 Inf 24.0860
917.6594 Inf 24.2030
918.1678 Inf 24.4250
918.6762 Inf 24.4650
919.1846 Inf 24.7690
919.6930 Inf 24.8260
920.2014 Inf 24.5510
920.7098 Inf 24.6190
921.2182 Inf 24.6080
921.7266 Inf 24.6900
922.2350 Inf 24.5080
922.7434 Inf 24.4910
923.2518 Inf 24.6590
923.7602 Inf 24.7120
924.2686 Inf 24.4590
924.7770 Inf 24.4700
925.2854 Inf 24.5920
925.7938 Inf 24.6640
926.3022 Inf 24.8580
926.8106 Inf 24.8110
927.3190 Inf 24.6030
927.8274 Inf 24.4860
928.3358 Inf 24.6000
928.8442 Inf 24.6200
929.3526 Inf 24.6960
929.8610 Inf 24.7200
930.3693 Inf 24.6600
930.8777 Inf 24.3990
931.3861 Inf 24.2930
931.8945 Inf 24.4200
932.4029 Inf 24.4180
932.9113 Inf 24.7360
933.4197 Inf 24.9760
933.9281 Inf 24.9900
934.4365 Inf 24.7850
934.9449 Inf 24.7730
935.4533 Inf 24.9770
935.9617 Inf 24.7210
936.4701 Inf 24.9380
936.9785 Inf 24.8410
937.4869 Inf 24.5700
937.9953 Inf 24.4510
938.5037 Inf 24.5880
939.0121 Inf 24.6440
939.5205 Inf 24.5880
940.0289 Inf 24.7190
940.5373 Inf 24.9540
941.0457 Inf 24.7740
941.5541 Inf 24.6290
942.0625 Inf 24.8480
942.5709 Inf 24.9320
943.0793 Inf 25.0230
943.5877 Inf 25.2750
944.0961 Inf 25.1510
944.6045 Inf 24.7900
945.1129 Inf 24.7600
945.6213 Inf 24.7740
946.1297 Inf 24.6590
946.6381 Inf 24.6550
947.1465 Inf 25.0020
947.6549 Inf 24.9440
948.1633 Inf 24.9670
948.6717 Inf 24.8400
949.1801 Inf 24.9720
949.6885 Inf 25.0100
950.1969 Inf 25.2420
950.7053 Inf 25.1800
951.2137 Inf 25.0720
951.7221 Inf 24.9770
952.2305 Inf 24.7650
952.7389 Inf 24.6880
953.2473 Inf 24.7250
953.7557 Inf 24.7800
954.2641 Inf 24.8160
954.7725 Inf 24.9560
955.2809 Inf 25.1740
955.7893 Inf 24.8210
956.2977 Inf 24.9050
956.8061 Inf 25.0270
957.3145 Inf 25.1920
957.8229 Inf 25.2420
958.3313 Inf 25.0050
958.8397 Inf 25.0490
959.3481 Inf 24.8300
959.8565 Inf 24.7010
960.3649 Inf 24.7520
960.8733 Inf 25.0760
961.3817 Inf 24.9050
961.8901 Inf 24.9130
962.3985 Inf 24.6380
962.9069 Inf 25.1690
963.4153 Inf 25.1840
963.9237 Inf 24.9000
964.4321 Inf 25.1050
964.9405 Inf 25.1200
965.4488 Inf 24.9370
965.9572 Inf 24.9890
966.4656 Inf 24.8370
966.9740 Inf 24.4740
967.4824 Inf 24.6610
967.9908 Inf 24.7680
968.4992 Inf 25.0180
969.0076 Inf 24.9860
969.5160 Inf 24.9630
970.0244 Inf 25.0050
970.5328 Inf 25.1670
971.0412 Inf 25.2080
971.5496 Inf 25.1490
972.0580 Inf 25.1970
972.5664 Inf 25.0600
973.0748 Inf 24.8840
973.5832 Inf 25.0430
