~Version Information
VERS. 2.0 : CWLS LOG ASCII STANDARD - VERSION 2.0
WRAP. NO : One line per depth step

SLVN.  2.14.3.1 (64bit) : Silistener Version Number
DTVN. Ultima: 8.1.18.0 (64bit) : DTS Version Number

~Well Information
#MNEM.UNIT VALUE/NAME :DESCRIPTION 
STRT.M -0 : START DEPTH
STOP.M 5498.8389 : STOP DEPTH
STEP.M 0.5084 : STEP
NULL.M -9999 : NULL VALUE
COMP. EBS : COMPANY
WELL. EBST-4-3H : WELL
FLD. EBS_MOC : FIELD
LOC. S2_CAMP : LOCATION
SRVC.  : SERVICE COMPANY
DATE. 01/05/2023 : LOG DATE
CNTY.  : COUNTY
STAT.  : STATE
CTRY.  : COUNTRY
API.  : API NUMBER

~Curve Information
#MNEM.UNITS API CODES :DESCRIPTION OF MNEMONIC
DEPT.M	: Depth
TEMP.°C	: Baseline
TEMP.°C	: Fast (10s)

~Parameter Information
#MNEM.UNIT VALUE/NAME :DESCRIPTION 
DTSF. 1.000000 : DTS Stretch Factor
DTZO.M 0.00 : DTS Zero Offset

~A Log Data
# ...
2455.5649 Inf 46.6380
2456.0735 Inf 46.6480
2456.5818 Inf 46.7390
2457.0901 Inf 46.7120
2457.5986 Inf 46.5980
2458.1069 Inf 46.6720
2458.6155 Inf 46.7860
2459.1238 Inf 47.0340
2459.6321 Inf 47.1210
2460.1406 Inf 46.7790
2460.6489 Inf 46.7420
2461.1575 Inf 46.8030
2461.6658 Inf 47.2980
2462.1743 Inf 47.0080
2462.6826 Inf 46.5620
2463.1909 Inf 46.7780
2463.6995 Inf 46.7150
2464.2078 Inf 46.5340
2464.7163 Inf 46.8140
2465.2246 Inf 46.5830
2465.7329 Inf 46.5770
2466.2415 Inf 46.8700
2466.7498 Inf 47.1200
2467.2583 Inf 46.9360
2467.7666 Inf 46.9300
2468.2749 Inf 47.0620
2468.7834 Inf 47.1900
2469.2917 Inf 47.1220
2469.8003 Inf 46.8790
2470.3086 Inf 46.9750
2470.8169 Inf 47.0100
2471.3254 Inf 46.9120
2471.8337 Inf 46.9630
2472.3423 Inf 47.0160
2472.8506 Inf 46.5870
2473.3589 Inf 47.1350
2473.8674 Inf 47.1820
2474.3757 Inf 47.1380
2474.8840 Inf 46.9890
2475.3926 Inf 47.1660
2475.9009 Inf 47.1380
2476.4092 Inf 47.2980
2476.9177 Inf 47.3280
2477.4260 Inf 47.3010
2477.9346 Inf 47.2440
2478.4429 Inf 47.2840
2478.9514 Inf 47.1220
2479.4597 Inf 47.0590
2479.9680 Inf 47.2630
2480.4766 Inf 47.0920
2480.9849 Inf 47.0270
2481.4934 Inf 47.1710
2482.0017 Inf 47.3630
2482.5100 Inf 47.3310
2483.0186 Inf 47.2750
2483.5269 Inf 46.9070
2484.0354 Inf 47.3320
2484.5437 Inf 47.3550
2485.0520 Inf 47.4040
2485.5605 Inf 47.2030
2486.0688 Inf 47.1680
2486.5774 Inf 47.4730
2487.0857 Inf 47.4650
2487.5940 Inf 47.6340
2488.1025 Inf 47.5650
2488.6108 Inf 47.6080
2489.1194 Inf 47.3830
2489.6277 Inf 47.5710
2490.1360 Inf 47.6070
2490.6445 Inf 47.5990
2491.1528 Inf 47.5270
2491.6614 Inf 47.5870
2492.1697 Inf 47.7100
2492.6780 Inf 47.6920
2493.1865 Inf 47.5070
2493.6948 Inf 47.5520
2494.2034 Inf 47.5340
2494.7117 Inf 47.7310
2495.2202 Inf 47.6210
2495.7285 Inf 47.8460
2496.2368 Inf 47.9050
2496.7454 Inf 47.3730
2497.2537 Inf 47.7750
2497.7622 Inf 47.8770
2498.2705 Inf 47.5490
2498.7788 Inf 47.5670
2499.2874 Inf 47.5740
2499.7957 Inf 47.8040
2500.3042 Inf 47.7960
2500.8125 Inf 47.7330
2501.3208 Inf 47.7770
2501.8293 Inf 47.7150
2502.3376 Inf 47.8610
2502.8462 Inf 48.0540
2503.3545 Inf 47.9950
2503.8628 Inf 47.8500
2504.3713 Inf 47.5570
2504.8796 Inf 47.6320
2505.3882 Inf 47.4410
2505.8965 Inf 48.0030
2506.4048 Inf 47.9950
2506.9133 Inf 47.9410
2507.4216 Inf 48.0220
2507.9302 Inf 48.0960
2508.4385 Inf 47.9350
2508.9470 Inf 47.8460
2509.4553 Inf 47.7050
2509.9636 Inf 47.8690
2510.4719 Inf 48.1690
2510.9805 Inf 48.0700
2511.4888 Inf 47.9150
2511.9973 Inf 48.0830
2512.5056 Inf 48.0520
2513.0139 Inf 48.0840
2513.5225 Inf 48.1110
2514.0308 Inf 47.7990
2514.5393 Inf 47.8970
2515.0476 Inf 47.7370
2515.5559 Inf 47.8480
2516.0645 Inf 48.1100
2516.5728 Inf 48.1850
2517.0813 Inf 48.0520
2517.5896 Inf 48.1500
2518.0979 Inf 47.9490
2518.6064 Inf 48.1440
2519.1147 Inf 47.8360
2519.6233 Inf 48.0090
2520.1316 Inf 48.3750
2520.6399 Inf 47.9330
2521.1484 Inf 48.4530
2521.6567 Inf 48.2890
2522.1653 Inf 48.1400
2522.6736 Inf 48.3260
2523.1819 Inf 48.2160
2523.6904 Inf 48.1560
2524.1987 Inf 48.0140
2524.7073 Inf 48.2010
2525.2156 Inf 48.1840
2525.7241 Inf 48.3370
2526.2324 Inf 48.1570
2526.7407 Inf 47.9790
2527.2493 Inf 48.2100
2527.7576 Inf 48.4410
2528.2661 Inf 48.4490
2528.7744 Inf 48.2500
2529.2827 Inf 48.3650
2529.7913 Inf 48.2070
2530.2996 Inf 48.1150
2530.8081 Inf 48.5890
2531.3164 Inf 48.6700
2531.8247 Inf 48.4440
2532.3333 Inf 48.3670
2532.8416 Inf 48.3660
2533.3501 Inf 48.5710
2533.8584 Inf 48.4660
2534.3667 Inf 48.4610
2534.8752 Inf 48.4410
2535.3835 Inf 48.3740
2535.8921 Inf 48.4400
2536.4004 Inf 48.8400
2536.9087 Inf 48.1560
2537.4172 Inf 48.4100
2537.9255 Inf 48.6950
2538.4341 Inf 48.3970
2538.9424 Inf 48.1460
2539.4507 Inf 48.5180
2539.9592 Inf 48.7840
2540.4675 Inf 48.8160
2540.9761 Inf 48.3610
2541.4844 Inf 48.7320
2541.9929 Inf 48.7540
2542.5012 Inf 48.5000
2543.0095 Inf 48.2990
2543.5181 Inf 48.5590
2544.0264 Inf 48.8230
2544.5349 Inf 48.5320
2545.0432 Inf 48.7920
2545.5515 Inf 48.7860
2546.0598 Inf 48.8860
2546.5684 Inf 48.6240
2547.0767 Inf 48.7160
2547.5852 Inf 48.9600
2548.0935 Inf 48.9880
2548.6018 Inf 49.0510
2549.1104 Inf 48.7020
2549.6187 Inf 49.2790
2550.1272 Inf 49.2260
2550.6355 Inf 48.9550
2551.1438 Inf 48.8580
2551.6523 Inf 48.8450
2552.1606 Inf 48.6040
2552.6692 Inf 48.7780
2553.1775 Inf 49.1090
2553.6858 Inf 49.1920
2554.1943 Inf 49.1060
2554.7026 Inf 49.1850
2555.2112 Inf 48.7930
2555.7195 Inf 48.9880
2556.2278 Inf 48.8220
2556.7363 Inf 48.8880
2557.2446 Inf 48.8400
2557.7532 Inf 48.9540
2558.2615 Inf 48.9580
2558.7700 Inf 49.2300
2559.2783 Inf 49.0630
2559.7866 Inf 49.0500
2560.2952 Inf 49.1570
2560.8035 Inf 48.8540
2561.3120 Inf 48.9550
2561.8203 Inf 48.8710
2562.3286 Inf 49.0100
2562.8372 Inf 48.9180
2563.3455 Inf 48.7910
2563.8540 Inf 48.9610
2564.3623 Inf 48.8810
2564.8706 Inf 49.0230
2565.3792 Inf 48.7630
2565.8875 Inf 48.8740
2566.3960 Inf 48.9870
2566.9043 Inf 48.9930
2567.4126 Inf 48.9800
2567.9211 Inf 49.1940
2568.4294 Inf 49.1160
2568.9380 Inf 49.1630
2569.4463 Inf 49.4970
2569.9546 Inf 49.6240
2570.4631 Inf 49.6170
2570.9714 Inf 49.4940
2571.4800 Inf 49.0560
2571.9883 Inf 48.8810
2572.4966 Inf 49.5650
2573.0051 Inf 49.6020
2573.5134 Inf 49.1240
2574.0220 Inf 49.4000
2574.5303 Inf 49.3650
2575.0388 Inf 49.4240
2575.5471 Inf 49.1770
2576.0554 Inf 49.1670
2576.5640 Inf 49.3630
2577.0723 Inf 49.1660
2577.5808 Inf 48.9500
2578.0891 Inf 49.3450
2578.5974 Inf 49.5300
2579.1060 Inf 49.2780
2579.6143 Inf 49.4510
2580.1228 Inf 49.1480
2580.6311 Inf 49.2870
2581.1394 Inf 48.9780
2581.6477 Inf 49.2220
2582.1562 Inf 49.3060
2582.6646 Inf 49.4500
2583.1731 Inf 49.5970
2583.6814 Inf 49.5330
2584.1897 Inf 49.3350
2584.6982 Inf 49.6030
2585.2065 Inf 49.6790
2585.7151 Inf 49.7800
2586.2234 Inf 49.8040
2586.7317 Inf 49.6510
2587.2402 Inf 49.4530
2587.7485 Inf 49.4290
2588.2571 Inf 49.3360
2588.7654 Inf 49.3680
2589.2737 Inf 49.5810
2589.7822 Inf 50.0120
2590.2905 Inf 49.5380
2590.7991 Inf 49.5240
2591.3074 Inf 49.4730
2591.8159 Inf 49.4750
2592.3242 Inf 49.9750
2592.8325 Inf 49.6540
2593.3411 Inf 49.7640
2593.8494 Inf 49.6190
2594.3579 Inf 49.5910
2594.8662 Inf 50.1290
2595.3745 Inf 49.9000
2595.8831 Inf 49.8740
2596.3914 Inf 49.5390
2596.8999 Inf 49.6050
2597.4082 Inf 49.9520
2597.9165 Inf 49.8860
2598.4250 Inf 49.6860
2598.9333 Inf 49.6930
2599.4419 Inf 49.5650
2599.9502 Inf 49.5780
2600.4585 Inf 49.9880
2600.9670 Inf 49.5590
2601.4753 Inf 49.6270
2601.9839 Inf 49.6350
2602.4922 Inf 49.6340
2603.0005 Inf 49.5670
2603.5090 Inf 49.5830
2604.0173 Inf 49.8670
2604.5259 Inf 49.6710
2605.0342 Inf 49.7970
2605.5425 Inf 49.6410
2606.0510 Inf 49.7360
2606.5593 Inf 49.5530
2607.0679 Inf 49.4030
2607.5762 Inf 49.7450
2608.0847 Inf 49.8930
2608.5930 Inf 49.7650
2609.1013 Inf 49.9190
2609.6099 Inf 50.1300
2610.1182 Inf 50.0960
2610.6267 Inf 49.6760
2611.1350 Inf 49.8030
2611.6433 Inf 49.9040
2612.1519 Inf 49.8770
2612.6602 Inf 49.9770
2613.1687 Inf 50.2280
2613.6770 Inf 50.1370
2614.1853 Inf 50.2230
2614.6938 Inf 50.0980
2615.2021 Inf 50.0250
2615.7104 Inf 49.9970
2616.2190 Inf 49.9590
2616.7273 Inf 50.2810
2617.2356 Inf 50.1100
2617.7441 Inf 50.2370
2618.2524 Inf 50.2040
2618.7610 Inf 50.2070
2619.2693 Inf 50.0890
2619.7776 Inf 50.0760
2620.2861 Inf 50.1290
2620.7944 Inf 49.9890
2621.3030 Inf 49.8880
2621.8113 Inf 50.0080
2622.3196 Inf 50.0500
2622.8281 Inf 50.2730
2623.3364 Inf 50.1110
2623.8450 Inf 49.8780
2624.3533 Inf 50.2020
2624.8618 Inf 50.1830
2625.3701 Inf 50.2140
2625.8784 Inf 49.7290
2626.3870 Inf 49.9670
2626.8953 Inf 49.9680
2627.4038 Inf 50.3430
2627.9121 Inf 50.4630
2628.4204 Inf 49.7780
2628.9290 Inf 50.1730
2629.4373 Inf 50.1450
2629.9458 Inf 50.3160
2630.4541 Inf 50.3260
2630.9624 Inf 50.2870
2631.4709 Inf 50.2170
2631.9792 Inf 50.3750
2632.4878 Inf 50.5340
2632.9961 Inf 50.2080
2633.5044 Inf 50.1850
2634.0129 Inf 50.1020
2634.5212 Inf 50.5830
2635.0298 Inf 50.4790
2635.5381 Inf 50.2230
2636.0464 Inf 50.2570
2636.5549 Inf 50.2490
2637.0632 Inf 50.0600
2637.5718 Inf 50.0750
2638.0801 Inf 50.2850
2638.5884 Inf 50.2410
2639.0969 Inf 50.1580
2639.6052 Inf 50.3240
2640.1138 Inf 50.3170
