~Version Information
VERS. 2.0 : CWLS LOG ASCII STANDARD - VERSION 2.0
WRAP. NO : One line per depth step

SLVN.  2.14.3.1 (64bit) : Silistener Version Number
DTVN. Ultima: 8.1.18.0 (64bit) : DTS Version Number

~Well Information
#MNEM.UNIT VALUE/NAME :DESCRIPTION 
STRT.M -0 : START DEPTH
STOP.M 5498.8389 : STOP DEPTH
STEP.M 0.5084 : STEP
NULL.M -9999 : NULL VALUE
COMP. EBS : COMPANY
WELL. EBST-4-3H : WELL
FLD. EBS_MOC : FIELD
LOC. S2_CAMP : LOCATION
SRVC.  : SERVICE COMPANY
DATE. 01/05/2023 : LOG DATE
CNTY.  : COUNTY
STAT.  : STATE
CTRY.  : COUNTRY
API.  : API NUMBER

~Curve Information
#MNEM.UNITS API CODES :DESCRIPTION OF MNEMONIC
DEPT.M	: Depth
TEMP.°C	: Baseline
TEMP.°C	: Fast (10s)

~Parameter Information
#MNEM.UNIT VALUE/NAME :DESCRIPTION 
DTSF. 1.000000 : DTS Stretch Factor
DTZO.M 0.00 : DTS Zero Offset

~A Log Data
# ...
1160.1655 Inf 21.1170
1160.6740 Inf 20.9290
1161.1823 Inf 20.9790
1161.6907 Inf 21.1520
1162.1991 Inf 20.9730
1162.7075 Inf 21.0810
1163.2159 Inf 21.0820
1163.7242 Inf 21.3530
1164.2327 Inf 21.7000
1164.7411 Inf 22.3860
1165.2495 Inf 22.3610
1165.7579 Inf 22.4190
1166.2664 Inf 22.5120
1166.7747 Inf 22.1770
1167.2831 Inf 21.9690
1167.7915 Inf 21.8720
1168.2999 Inf 21.6840
1168.8083 Inf 21.8640
1169.3167 Inf 21.8660
1169.8251 Inf 21.7380
1170.3335 Inf 21.5690
1170.8419 Inf 21.3540
1171.3503 Inf 21.5980
1171.8586 Inf 22.3750
1172.3671 Inf 22.8440
1172.8755 Inf 22.9680
1173.3839 Inf 23.0590
1173.8923 Inf 22.8610
1174.4008 Inf 22.5770
1174.9091 Inf 22.1280
1175.4175 Inf 22.0380
1175.9259 Inf 22.2960
1176.4342 Inf 22.1910
1176.9426 Inf 22.1780
1177.4510 Inf 21.8600
1177.9594 Inf 21.9200
1178.4678 Inf 22.0060
1178.9762 Inf 22.4610
1179.4846 Inf 22.7150
1179.9930 Inf 23.0880
1180.5013 Inf 23.3700
1181.0098 Inf 23.0300
1181.5182 Inf 22.6740
1182.0266 Inf 22.2880
1182.5350 Inf 22.1660
1183.0435 Inf 22.3990
1183.5518 Inf 22.5470
1184.0602 Inf 22.4110
1184.5686 Inf 22.0840
1185.0770 Inf 22.0910
1185.5854 Inf 21.7940
1186.0937 Inf 22.2200
1186.6022 Inf 23.0790
1187.1106 Inf 23.2620
1187.6190 Inf 23.2070
1188.1274 Inf 23.3090
1188.6357 Inf 23.1000
1189.1442 Inf 22.7160
1189.6526 Inf 22.6610
1190.1610 Inf 22.6090
1190.6694 Inf 22.3560
1191.1779 Inf 22.5520
1191.6862 Inf 22.3450
1192.1946 Inf 22.2240
1192.7030 Inf 22.2210
1193.2114 Inf 22.2590
1193.7198 Inf 22.8050
1194.2281 Inf 23.4790
1194.7366 Inf 23.6430
1195.2450 Inf 23.7520
1195.7534 Inf 23.6960
1196.2618 Inf 23.3470
1196.7701 Inf 22.8920
1197.2786 Inf 22.5210
1197.7870 Inf 22.7920
1198.2954 Inf 22.9450
1198.8038 Inf 22.9460
1199.3123 Inf 22.6280
1199.8206 Inf 22.6630
1200.3290 Inf 22.6920
1200.8374 Inf 23.2170
1201.3458 Inf 23.6120
1201.8542 Inf 23.7850
1202.3625 Inf 23.6920
1202.8710 Inf 23.6990
1203.3794 Inf 23.3150
1203.8878 Inf 23.0190
1204.3962 Inf 22.7700
1204.9045 Inf 22.7400
1205.4130 Inf 22.8270
1205.9214 Inf 23.0890
1206.4298 Inf 22.8030
1206.9382 Inf 22.6310
1207.4467 Inf 22.9670
1207.9550 Inf 23.0550
1208.4634 Inf 23.2520
1208.9718 Inf 23.5800
1209.4802 Inf 23.8440
1209.9886 Inf 23.9480
1210.4969 Inf 23.8410
1211.0054 Inf 23.7120
1211.5137 Inf 23.3390
1212.0221 Inf 22.8250
1212.5305 Inf 22.7660
1213.0389 Inf 23.0740
1213.5472 Inf 23.1270
1214.0557 Inf 22.7720
1214.5641 Inf 22.7990
1215.0725 Inf 22.7820
1215.5809 Inf 23.0310
1216.0894 Inf 23.6250
1216.5977 Inf 24.0280
1217.1061 Inf 24.0170
1217.6145 Inf 23.9650
1218.1229 Inf 23.7220
1218.6313 Inf 23.4320
1219.1396 Inf 23.0790
1219.6481 Inf 22.8180
1220.1565 Inf 22.8190
1220.6649 Inf 23.0130
1221.1733 Inf 22.9720
1221.6816 Inf 22.8340
1222.1901 Inf 22.9980
1222.6985 Inf 23.1560
1223.2069 Inf 23.5330
1223.7153 Inf 23.9930
1224.2238 Inf 24.2060
1224.7321 Inf 24.3470
1225.2405 Inf 23.9590
1225.7489 Inf 23.5140
1226.2573 Inf 23.1780
1226.7657 Inf 22.9430
1227.2740 Inf 22.8560
1227.7825 Inf 22.7960
1228.2909 Inf 23.0490
1228.7993 Inf 23.0280
1229.3077 Inf 22.7530
1229.8160 Inf 22.7570
1230.3245 Inf 23.0840
1230.8329 Inf 23.7640
1231.3413 Inf 24.0380
1231.8497 Inf 24.0750
1232.3582 Inf 23.9810
1232.8665 Inf 23.7970
1233.3749 Inf 23.5590
1233.8833 Inf 23.2630
1234.3917 Inf 23.0690
1234.9001 Inf 23.3490
1235.4084 Inf 23.2540
1235.9169 Inf 23.3040
1236.4253 Inf 23.0780
1236.9337 Inf 22.9460
1237.4421 Inf 22.9940
1237.9504 Inf 23.5070
1238.4589 Inf 23.9520
1238.9673 Inf 24.0980
1239.4757 Inf 24.1790
1239.9841 Inf 24.0650
1240.4926 Inf 23.7540
1241.0009 Inf 23.6070
1241.5093 Inf 23.1810
1242.0177 Inf 22.9440
1242.5261 Inf 23.0610
1243.0345 Inf 23.1770
1243.5428 Inf 23.3570
1244.0513 Inf 23.4160
1244.5597 Inf 23.2650
1245.0681 Inf 23.3980
1245.5765 Inf 23.5500
1246.0850 Inf 23.9560
1246.5931 Inf 24.0290
1247.1016 Inf 24.1400
1247.6100 Inf 24.1320
1248.1184 Inf 24.1420
1248.6268 Inf 23.5830
1249.1353 Inf 23.2000
1249.6436 Inf 23.0560
1250.1520 Inf 23.3120
1250.6604 Inf 23.4060
1251.1688 Inf 23.4960
1251.6772 Inf 23.2060
1252.1855 Inf 23.1690
1252.6940 Inf 23.5800
1253.2024 Inf 23.9680
1253.7108 Inf 24.0910
1254.2192 Inf 24.1620
1254.7275 Inf 24.2740
1255.2360 Inf 24.3510
1255.7444 Inf 23.8960
1256.2528 Inf 23.3680
1256.7612 Inf 23.2220
1257.2697 Inf 23.4610
1257.7780 Inf 23.5720
1258.2864 Inf 23.5820
1258.7948 Inf 23.5540
1259.3032 Inf 23.6390
1259.8116 Inf 23.5600
1260.3199 Inf 24.1720
1260.8284 Inf 24.3690
1261.3368 Inf 24.4280
1261.8452 Inf 24.5540
1262.3536 Inf 24.4580
1262.8621 Inf 24.1830
1263.3704 Inf 23.8880
1263.8788 Inf 23.6250
1264.3872 Inf 23.5270
1264.8956 Inf 23.5820
1265.4041 Inf 23.6450
1265.9124 Inf 24.0780
1266.4208 Inf 23.9350
1266.9292 Inf 23.9850
1267.4376 Inf 23.8290
1267.9460 Inf 24.1910
1268.4543 Inf 24.5580
1268.9628 Inf 24.5340
1269.4712 Inf 24.8520
1269.9796 Inf 24.4820
1270.4880 Inf 24.1910
1270.9965 Inf 23.8460
1271.5048 Inf 23.6260
1272.0132 Inf 23.6540
1272.5216 Inf 23.7680
1273.0300 Inf 23.8330
1273.5385 Inf 23.9600
1274.0468 Inf 23.9910
1274.5552 Inf 24.2520
1275.0636 Inf 24.3800
1275.5720 Inf 24.5890
1276.0804 Inf 24.5880
1276.5887 Inf 24.6440
1277.0972 Inf 24.6880
1277.6056 Inf 24.5300
1278.1140 Inf 23.9170
1278.6224 Inf 23.7310
1279.1309 Inf 24.0040
1279.6392 Inf 23.8970
1280.1476 Inf 24.1110
1280.6560 Inf 24.1210
1281.1644 Inf 23.9610
1281.6727 Inf 23.8460
1282.1812 Inf 23.9590
1282.6895 Inf 24.6320
1283.1979 Inf 24.9050
1283.7063 Inf 24.8870
1284.2147 Inf 24.5180
1284.7231 Inf 24.3560
1285.2314 Inf 24.3460
1285.7399 Inf 23.8180
1286.2483 Inf 23.7600
1286.7567 Inf 24.1150
1287.2651 Inf 24.3260
1287.7736 Inf 24.3120
1288.2819 Inf 24.1630
1288.7903 Inf 23.9650
1289.2987 Inf 24.0800
1289.8071 Inf 24.3730
1290.3156 Inf 24.6240
1290.8239 Inf 24.8280
1291.3323 Inf 24.7640
1291.8407 Inf 24.6100
1292.3491 Inf 24.3770
1292.8575 Inf 24.4110
1293.3658 Inf 24.0680
1293.8743 Inf 23.5840
1294.3827 Inf 23.9510
1294.8911 Inf 24.0020
1295.3995 Inf 24.2270
1295.9080 Inf 24.2240
1296.4163 Inf 24.1490
1296.9247 Inf 24.0220
1297.4331 Inf 24.5000
1297.9415 Inf 24.6770
1298.4500 Inf 24.6160
1298.9583 Inf 24.9550
1299.4667 Inf 24.7940
1299.9751 Inf 24.2040
1300.4835 Inf 24.0380
1300.9919 Inf 23.7640
1301.5002 Inf 23.9090
1302.0087 Inf 23.8900
1302.5171 Inf 24.0270
1303.0255 Inf 23.9920
1303.5339 Inf 24.0700
1304.0424 Inf 24.0240
1304.5507 Inf 24.5090
1305.0591 Inf 24.8730
1305.5675 Inf 24.7420
1306.0759 Inf 24.7560
1306.5844 Inf 24.8170
1307.0927 Inf 24.7890
1307.6011 Inf 24.4700
1308.1095 Inf 24.1880
1308.6179 Inf 24.0930
1309.1263 Inf 24.1570
1309.6346 Inf 23.9770
1310.1431 Inf 24.0630
1310.6515 Inf 24.1040
1311.1599 Inf 24.0850
1311.6683 Inf 24.1620
1312.1768 Inf 24.3020
1312.6851 Inf 24.7820
1313.1935 Inf 24.9000
1313.7019 Inf 24.8430
1314.2103 Inf 24.6060
1314.7187 Inf 24.4040
1315.2271 Inf 24.1410
1315.7355 Inf 23.9030
1316.2439 Inf 23.9820
1316.7522 Inf 24.1030
1317.2606 Inf 24.4500
1317.7690 Inf 24.4160
1318.2773 Inf 24.2820
1318.7858 Inf 24.1210
1319.2942 Inf 24.3580
1319.8026 Inf 24.7900
1320.3110 Inf 24.8430
1320.8195 Inf 25.0360
1321.3278 Inf 24.9050
1321.8362 Inf 24.6130
1322.3446 Inf 24.2900
1322.8530 Inf 24.0190
1323.3615 Inf 24.0990
1323.8698 Inf 24.1740
1324.3782 Inf 24.3070
1324.8866 Inf 24.3300
1325.3950 Inf 24.2930
1325.9034 Inf 23.9840
1326.4117 Inf 23.9690
1326.9202 Inf 24.0450
1327.4286 Inf 24.4890
1327.9370 Inf 24.5660
1328.4454 Inf 24.7620
1328.9539 Inf 24.9530
1329.4622 Inf 24.6550
1329.9706 Inf 24.3490
1330.4790 Inf 24.1770
1330.9874 Inf 24.1380
1331.4958 Inf 24.1770
1332.0042 Inf 24.3330
1332.5126 Inf 24.3550
1333.0210 Inf 24.1750
1333.5294 Inf 24.0110
1334.0378 Inf 24.0700
1334.5461 Inf 24.6820
1335.0546 Inf 24.5270
1335.5630 Inf 24.6340
1336.0714 Inf 24.6980
1336.5798 Inf 24.5900
1337.0883 Inf 24.3530
1337.5966 Inf 24.1730
1338.1050 Inf 23.9060
1338.6134 Inf 24.0420
1339.1218 Inf 24.2410
1339.6302 Inf 24.4260
1340.1385 Inf 24.1280
1340.6470 Inf 23.9880
1341.1554 Inf 24.1100
1341.6638 Inf 24.2990
1342.1722 Inf 24.4430
1342.6805 Inf 24.6650
1343.1890 Inf 24.8880
1343.6974 Inf 24.6690
1344.2058 Inf 24.4430
1344.7142 Inf 24.2020
