~Version Information
VERS. 2.0 : CWLS LOG ASCII STANDARD - VERSION 2.0
WRAP. NO : One line per depth step

SLVN.  2.14.3.1 (64bit) : Silistener Version Number
DTVN. Ultima: 8.1.18.0 (64bit) : DTS Version Number

~Well Information
#MNEM.UNIT VALUE/NAME :DESCRIPTION 
STRT.M -0 : START DEPTH
STOP.M 5498.8389 : STOP DEPTH
STEP.M 0.5084 : STEP
NULL.M -9999 : NULL VALUE
COMP. EBS : COMPANY
WELL. EBST-4-3H : WELL
FLD. EBS_MOC : FIELD
LOC. S2_CAMP : LOCATION
SRVC.  : SERVICE COMPANY
DATE. 01/05/2023 : LOG DATE
CNTY.  : COUNTY
STAT.  : STATE
CTRY.  : COUNTRY
API.  : API NUMBER

~Curve Information
#MNEM.UNITS API CODES :DESCRIPTION OF MNEMONIC
DEPT.M	: Depth
TEMP.°C	: Baseline
TEMP.°C	: Fast (10s)

~Parameter Information
#MNEM.UNIT VALUE/NAME :DESCRIPTION 
DTSF. 1.000000 : DTS Stretch Factor
DTZO.M 0.00 : DTS Zero Offset

~A Log Data
# ...
2085.4509 Inf 38.3570
2085.9592 Inf 38.2290
2086.4678 Inf 38.4880
2086.9761 Inf 38.5570
2087.4846 Inf 38.3630
2087.9929 Inf 38.2550
2088.5012 Inf 38.2460
2089.0095 Inf 38.3220
2089.5181 Inf 38.2580
2090.0264 Inf 38.4830
2090.5349 Inf 38.6340
2091.0432 Inf 38.6490
2091.5515 Inf 38.2830
2092.0601 Inf 38.3170
2092.5684 Inf 38.4670
2093.0769 Inf 38.5860
2093.5852 Inf 38.3660
2094.0935 Inf 38.5750
2094.6021 Inf 38.4010
2095.1104 Inf 38.5450
2095.6189 Inf 38.5990
2096.1272 Inf 38.7240
2096.6355 Inf 38.5510
2097.1440 Inf 38.5320
2097.6523 Inf 38.4780
2098.1609 Inf 38.5100
2098.6692 Inf 38.5560
2099.1775 Inf 38.6530
2099.6860 Inf 38.8820
2100.1943 Inf 38.8750
2100.7029 Inf 38.8390
2101.2112 Inf 38.4750
2101.7195 Inf 38.9160
2102.2280 Inf 38.5380
2102.7363 Inf 38.7010
2103.2449 Inf 38.8200
2103.7532 Inf 38.7970
2104.2617 Inf 38.7690
2104.7700 Inf 38.7620
2105.2783 Inf 38.7720
2105.7869 Inf 38.7330
2106.2952 Inf 38.7470
2106.8037 Inf 38.7420
2107.3120 Inf 38.7060
2107.8203 Inf 38.7290
2108.3289 Inf 38.8960
2108.8372 Inf 38.8340
2109.3457 Inf 38.6480
2109.8540 Inf 38.7830
2110.3623 Inf 38.9130
2110.8708 Inf 38.9680
2111.3792 Inf 38.7340
2111.8877 Inf 38.8320
2112.3960 Inf 39.0120
2112.9043 Inf 38.7660
2113.4128 Inf 38.7560
2113.9211 Inf 39.0070
2114.4297 Inf 38.9470
2114.9380 Inf 38.7660
2115.4463 Inf 38.9820
2115.9548 Inf 39.1920
2116.4631 Inf 39.1300
2116.9717 Inf 38.8800
2117.4800 Inf 38.8170
2117.9883 Inf 38.9720
2118.4968 Inf 39.0350
2119.0051 Inf 39.1630
2119.5137 Inf 39.1790
2120.0220 Inf 39.1080
2120.5305 Inf 39.1020
2121.0388 Inf 39.0430
2121.5471 Inf 39.1970
2122.0557 Inf 39.1350
2122.5640 Inf 38.9920
2123.0725 Inf 39.1190
2123.5808 Inf 39.1750
2124.0891 Inf 38.9790
2124.5974 Inf 39.0510
2125.1060 Inf 39.1360
2125.6143 Inf 39.3240
2126.1228 Inf 39.0210
2126.6311 Inf 39.1180
2127.1394 Inf 39.4490
2127.6479 Inf 39.4070
2128.1562 Inf 39.3290
2128.6648 Inf 39.2070
2129.1731 Inf 39.1660
2129.6814 Inf 39.1170
2130.1899 Inf 39.0320
2130.6982 Inf 39.0300
2131.2068 Inf 39.3700
2131.7151 Inf 39.1590
2132.2234 Inf 39.2550
2132.7319 Inf 39.4910
2133.2402 Inf 39.1770
2133.7488 Inf 39.0770
2134.2571 Inf 39.4030
2134.7654 Inf 39.6620
2135.2739 Inf 39.5340
2135.7822 Inf 39.4340
2136.2908 Inf 39.4410
2136.7991 Inf 39.3240
2137.3076 Inf 39.7220
2137.8159 Inf 39.5070
2138.3242 Inf 39.3620
2138.8328 Inf 39.4970
2139.3411 Inf 39.7780
2139.8496 Inf 39.6250
2140.3579 Inf 39.7770
2140.8662 Inf 39.8440
2141.3748 Inf 39.6660
2141.8831 Inf 39.4460
2142.3916 Inf 39.6490
2142.8999 Inf 39.6740
2143.4082 Inf 39.4210
2143.9167 Inf 39.2970
2144.4250 Inf 39.4780
2144.9336 Inf 39.9620
2145.4419 Inf 39.8930
2145.9502 Inf 39.6520
2146.4587 Inf 39.5660
2146.9670 Inf 39.7390
2147.4756 Inf 39.5880
2147.9839 Inf 39.5860
2148.4922 Inf 39.7790
2149.0007 Inf 39.6080
2149.5090 Inf 39.7740
2150.0176 Inf 39.7190
2150.5259 Inf 39.7110
2151.0342 Inf 39.7420
2151.5427 Inf 39.7370
2152.0510 Inf 39.9130
2152.5596 Inf 39.8260
2153.0679 Inf 40.0700
2153.5764 Inf 39.9630
2154.0847 Inf 39.7560
2154.5930 Inf 39.8040
2155.1016 Inf 39.6890
2155.6099 Inf 39.7200
2156.1184 Inf 39.9730
2156.6267 Inf 39.9500
2157.1350 Inf 39.9890
2157.6436 Inf 40.0290
2158.1519 Inf 39.8750
2158.6604 Inf 39.8910
2159.1687 Inf 40.1530
2159.6770 Inf 40.0430
2160.1853 Inf 39.6430
2160.6938 Inf 39.9350
2161.2021 Inf 40.1610
2161.7107 Inf 39.9650
2162.2190 Inf 40.0640
2162.7273 Inf 39.6410
2163.2358 Inf 39.6380
2163.7441 Inf 39.7450
2164.2527 Inf 39.9040
2164.7610 Inf 39.9850
2165.2693 Inf 39.7240
2165.7778 Inf 39.9560
2166.2861 Inf 40.0960
2166.7947 Inf 40.0460
2167.3030 Inf 40.1890
2167.8113 Inf 40.0980
2168.3198 Inf 39.8750
2168.8281 Inf 39.9730
2169.3367 Inf 40.0950
2169.8450 Inf 40.1240
2170.3535 Inf 40.2130
2170.8618 Inf 39.9200
2171.3701 Inf 39.8900
2171.8787 Inf 40.0980
2172.3870 Inf 40.2170
2172.8955 Inf 40.1180
2173.4038 Inf 40.1710
2173.9121 Inf 40.1650
2174.4207 Inf 40.2110
2174.9290 Inf 40.3350
2175.4375 Inf 40.1120
2175.9458 Inf 40.1620
2176.4541 Inf 40.0860
2176.9626 Inf 40.4040
2177.4709 Inf 40.5870
2177.9795 Inf 40.3600
2178.4878 Inf 40.4070
2178.9961 Inf 40.3240
2179.5046 Inf 40.3450
2180.0129 Inf 40.1990
2180.5215 Inf 40.3670
2181.0298 Inf 40.4180
2181.5381 Inf 40.2160
2182.0466 Inf 40.4150
2182.5549 Inf 40.3760
2183.0635 Inf 40.4020
2183.5718 Inf 40.1360
2184.0801 Inf 40.3880
2184.5886 Inf 40.3350
2185.0969 Inf 40.4420
2185.6055 Inf 40.4850
2186.1138 Inf 40.4830
2186.6223 Inf 40.3580
2187.1306 Inf 40.3340
2187.6389 Inf 40.8520
2188.1475 Inf 40.5710
2188.6558 Inf 40.2710
2189.1643 Inf 40.3350
2189.6726 Inf 40.3710
2190.1809 Inf 40.3890
2190.6895 Inf 40.5880
2191.1978 Inf 40.9950
2191.7063 Inf 40.5380
2192.2146 Inf 40.5270
2192.7229 Inf 40.7170
2193.2314 Inf 40.5800
2193.7397 Inf 40.5190
2194.2480 Inf 40.5270
2194.7566 Inf 40.3920
2195.2649 Inf 40.5440
2195.7732 Inf 40.6280
2196.2817 Inf 41.1060
2196.7900 Inf 40.8750
2197.2986 Inf 40.8400
2197.8069 Inf 40.8810
2198.3152 Inf 40.7160
2198.8237 Inf 40.5270
2199.3320 Inf 40.5450
2199.8406 Inf 40.8030
2200.3489 Inf 40.7370
2200.8574 Inf 40.8010
2201.3657 Inf 40.8720
2201.8740 Inf 40.8470
2202.3826 Inf 40.7120
2202.8909 Inf 40.7060
2203.3994 Inf 40.9550
2203.9077 Inf 40.9000
2204.4160 Inf 40.8500
2204.9246 Inf 40.7970
2205.4329 Inf 41.0610
2205.9414 Inf 40.7280
2206.4497 Inf 40.5710
2206.9580 Inf 40.5590
2207.4666 Inf 40.8060
2207.9749 Inf 40.7990
2208.4834 Inf 40.6060
2208.9917 Inf 40.8700
2209.5000 Inf 41.1160
2210.0085 Inf 40.9670
2210.5168 Inf 40.9450
2211.0254 Inf 40.9140
2211.5337 Inf 41.0130
2212.0420 Inf 40.8730
2212.5505 Inf 41.1860
2213.0588 Inf 41.1190
2213.5674 Inf 41.1090
2214.0757 Inf 41.1300
2214.5840 Inf 41.0550
2215.0925 Inf 41.0640
2215.6008 Inf 41.1880
2216.1094 Inf 41.2330
2216.6177 Inf 41.2870
2217.1262 Inf 41.3690
2217.6345 Inf 41.3890
2218.1428 Inf 40.7740
2218.6514 Inf 41.0320
2219.1597 Inf 41.1990
2219.6682 Inf 41.1360
2220.1765 Inf 41.3330
2220.6848 Inf 41.2390
2221.1934 Inf 41.0580
2221.7017 Inf 41.1060
2222.2102 Inf 41.2140
2222.7185 Inf 41.3920
2223.2268 Inf 41.3750
2223.7354 Inf 41.1330
2224.2437 Inf 41.2600
2224.7522 Inf 41.2140
2225.2605 Inf 41.4250
2225.7688 Inf 41.3250
2226.2773 Inf 41.3400
2226.7856 Inf 41.1610
2227.2942 Inf 41.3500
2227.8025 Inf 41.2670
2228.3108 Inf 41.3970
2228.8193 Inf 41.4870
2229.3276 Inf 41.4090
2229.8359 Inf 41.1660
2230.3445 Inf 41.1380
2230.8528 Inf 41.5070
2231.3611 Inf 41.4440
2231.8696 Inf 41.3650
2232.3779 Inf 41.3300
2232.8865 Inf 41.4360
2233.3948 Inf 41.2270
2233.9033 Inf 41.5530
2234.4116 Inf 41.5480
2234.9199 Inf 41.5550
2235.4285 Inf 41.5470
2235.9368 Inf 41.6330
2236.4453 Inf 41.6380
2236.9536 Inf 41.7100
2237.4619 Inf 41.7840
2237.9705 Inf 41.5460
2238.4788 Inf 41.3630
2238.9873 Inf 41.4480
2239.4956 Inf 41.4660
2240.0039 Inf 41.4360
2240.5125 Inf 41.5970
2241.0208 Inf 41.6340
2241.5293 Inf 41.7300
2242.0376 Inf 41.3260
2242.5459 Inf 41.5010
2243.0544 Inf 41.9270
2243.5627 Inf 41.6980
2244.0713 Inf 41.6520
2244.5796 Inf 41.4060
2245.0879 Inf 41.8570
2245.5964 Inf 41.9870
2246.1047 Inf 41.8040
2246.6133 Inf 41.7120
2247.1216 Inf 41.6000
2247.6299 Inf 41.4600
2248.1384 Inf 41.6960
2248.6467 Inf 41.8860
2249.1553 Inf 41.8380
2249.6636 Inf 41.9970
2250.1721 Inf 42.0390
2250.6804 Inf 42.0800
2251.1887 Inf 41.9090
2251.6973 Inf 41.9840
2252.2056 Inf 41.9580
2252.7141 Inf 41.9530
2253.2224 Inf 41.7660
2253.7307 Inf 41.7300
2254.2393 Inf 42.1160
2254.7476 Inf 42.1040
2255.2561 Inf 41.8500
2255.7644 Inf 42.0230
2256.2727 Inf 42.0380
2256.7812 Inf 41.9170
2257.2896 Inf 41.8450
2257.7981 Inf 41.7450
2258.3064 Inf 42.2130
2258.8147 Inf 41.9870
2259.3232 Inf 41.9500
2259.8315 Inf 42.0310
2260.3401 Inf 42.0640
2260.8484 Inf 42.1300
2261.3567 Inf 42.2010
2261.8652 Inf 42.1500
2262.3735 Inf 42.1950
2262.8821 Inf 41.9030
2263.3904 Inf 42.1130
2263.8987 Inf 41.8730
2264.4070 Inf 42.0520
2264.9155 Inf 42.2050
2265.4238 Inf 42.2970
2265.9324 Inf 42.1510
2266.4407 Inf 42.2630
2266.9492 Inf 42.1380
2267.4575 Inf 41.9910
2267.9658 Inf 42.2300
2268.4744 Inf 42.0170
2268.9827 Inf 41.9810
2269.4912 Inf 42.4410
2269.9995 Inf 42.5980
