~Version Information
VERS. 2.0 : CWLS LOG ASCII STANDARD - VERSION 2.0
WRAP. NO : One line per depth step

SLVN.  2.14.3.1 (64bit) : Silistener Version Number
DTVN. Ultima: 8.1.18.0 (64bit) : DTS Version Number

~Well Information
#MNEM.UNIT VALUE/NAME :DESCRIPTION 
STRT.M -0 : START DEPTH
STOP.M 5498.8389 : STOP DEPTH
STEP.M 0.5084 : STEP
NULL.M -9999 : NULL VALUE
COMP. EBS : COMPANY
WELL. EBST-4-3H : WELL
FLD. EBS_MOC : FIELD
LOC. S2_CAMP : LOCATION
SRVC.  : SERVICE COMPANY
DATE. 01/05/2023 : LOG DATE
CNTY.  : COUNTY
STAT.  : STATE
CTRY.  : COUNTRY
API.  : API NUMBER

~Curve Information
#MNEM.UNITS API CODES :DESCRIPTION OF MNEMONIC
DEPT.M	: Depth
TEMP.°C	: Baseline
TEMP.°C	: Fast (10s)

~Parameter Information
#MNEM.UNIT VALUE/NAME :DESCRIPTION 
DTSF. 1.000000 : DTS Stretch Factor
DTZO.M 0.00 : DTS Zero Offset

~A Log Data
# ...
3936.0215 Inf 76.5630
3936.5300 Inf 76.0210
3937.0383 Inf 76.3760
3937.5469 Inf 76.0950
3938.0552 Inf 75.9480
3938.5637 Inf 76.3350
3939.0720 Inf 76.3860
3939.5803 Inf 75.9490
3940.0889 Inf 76.6740
3940.5972 Inf 76.6620
3941.1057 Inf 76.3940
3941.6140 Inf 75.3100
3942.1223 Inf 75.7940
3942.6309 Inf 76.5970
3943.1392 Inf 76.5400
3943.6477 Inf 76.1350
3944.1560 Inf 75.8200
3944.6643 Inf 75.6130
3945.1729 Inf 76.2780
3945.6812 Inf 76.4540
3946.1897 Inf 76.9070
3946.6980 Inf 76.3580
3947.2063 Inf 76.4030
3947.7148 Inf 75.9320
3948.2231 Inf 76.1510
3948.7317 Inf 76.0810
3949.2400 Inf 76.4290
3949.7483 Inf 76.0340
3950.2566 Inf 76.5420
3950.7651 Inf 75.9370
3951.2734 Inf 76.5320
3951.7820 Inf 76.2530
3952.2903 Inf 75.8610
3952.7986 Inf 76.5910
3953.3071 Inf 76.6330
3953.8154 Inf 75.9680
3954.3240 Inf 76.4290
3954.8323 Inf 76.4050
3955.3408 Inf 76.0050
3955.8491 Inf 76.0150
3956.3574 Inf 76.2680
3956.8660 Inf 76.5100
3957.3743 Inf 76.9990
3957.8828 Inf 76.2860
3958.3911 Inf 76.4150
3958.8994 Inf 75.8500
3959.4080 Inf 76.2310
3959.9163 Inf 76.1530
3960.4248 Inf 76.7700
3960.9331 Inf 76.4870
3961.4414 Inf 76.9470
3961.9500 Inf 76.6560
3962.4583 Inf 76.1270
3962.9668 Inf 76.6720
3963.4751 Inf 76.4840
3963.9834 Inf 76.2330
3964.4919 Inf 76.3190
3965.0002 Inf 76.2200
3965.5088 Inf 76.3500
3966.0171 Inf 76.6760
3966.5254 Inf 76.3900
3967.0339 Inf 76.5990
3967.5422 Inf 76.7490
3968.0508 Inf 76.7100
3968.5591 Inf 76.4860
3969.0674 Inf 75.9710
3969.5759 Inf 75.9010
3970.0842 Inf 76.2400
3970.5928 Inf 76.8130
3971.1011 Inf 77.3950
3971.6096 Inf 75.9960
3972.1179 Inf 76.3350
3972.6262 Inf 76.4920
3973.1348 Inf 76.6980
3973.6431 Inf 76.9060
3974.1516 Inf 76.7180
3974.6599 Inf 76.9300
3975.1682 Inf 76.4320
3975.6768 Inf 76.4160
3976.1851 Inf 76.4140
3976.6936 Inf 76.2170
3977.2019 Inf 76.2680
3977.7102 Inf 76.6170
3978.2187 Inf 76.2130
3978.7271 Inf 76.6810
3979.2356 Inf 76.7240
3979.7439 Inf 76.4270
3980.2522 Inf 76.6220
3980.7607 Inf 76.5010
3981.2690 Inf 76.1300
3981.7776 Inf 76.0460
3982.2859 Inf 76.6070
3982.7942 Inf 77.0170
3983.3027 Inf 76.9950
3983.8110 Inf 76.3590
3984.3196 Inf 76.6410
3984.8279 Inf 76.8680
3985.3362 Inf 76.4990
3985.8445 Inf 76.6210
3986.3530 Inf 76.2560
3986.8613 Inf 76.2120
3987.3699 Inf 76.4800
3987.8782 Inf 76.2920
3988.3867 Inf 76.4560
3988.8950 Inf 77.3860
3989.4033 Inf 76.7180
3989.9119 Inf 76.5800
3990.4202 Inf 76.5890
3990.9287 Inf 76.4950
3991.4370 Inf 76.4710
3991.9453 Inf 76.9980
3992.4539 Inf 76.8770
3992.9622 Inf 76.8600
3993.4707 Inf 77.2500
3993.9790 Inf 76.8870
3994.4873 Inf 76.3870
3994.9958 Inf 76.5420
3995.5042 Inf 76.8360
3996.0127 Inf 77.1320
3996.5210 Inf 77.4360
3997.0293 Inf 77.0980
3997.5378 Inf 76.8420
3998.0461 Inf 76.5220
3998.5547 Inf 75.9860
3999.0630 Inf 76.5820
3999.5713 Inf 76.6940
4000.0798 Inf 77.0030
4000.5881 Inf 76.9220
4001.0967 Inf 76.6400
4001.6050 Inf 76.9630
4002.1133 Inf 76.2780
4002.6218 Inf 76.7360
4003.1301 Inf 76.7380
4003.6387 Inf 76.8290
4004.1470 Inf 76.4370
4004.6555 Inf 76.8150
4005.1638 Inf 77.5420
4005.6721 Inf 76.7950
4006.1807 Inf 76.5350
4006.6890 Inf 76.6740
4007.1975 Inf 76.8670
4007.7058 Inf 76.7660
4008.2141 Inf 76.7490
4008.7227 Inf 77.1950
4009.2310 Inf 77.4560
4009.7395 Inf 76.8280
4010.2478 Inf 77.3540
4010.7561 Inf 77.3110
4011.2646 Inf 76.6470
4011.7729 Inf 76.8880
4012.2815 Inf 76.8520
4012.7898 Inf 76.8030
4013.2981 Inf 76.7560
4013.8066 Inf 76.7160
4014.3149 Inf 76.6390
4014.8235 Inf 76.7190
4015.3318 Inf 76.8240
4015.8401 Inf 76.7190
4016.3486 Inf 76.8290
4016.8569 Inf 77.2280
4017.3655 Inf 76.5680
4017.8738 Inf 76.7450
4018.3821 Inf 77.0850
4018.8906 Inf 76.8210
4019.3989 Inf 76.7930
4019.9072 Inf 77.1080
4020.4158 Inf 77.1030
4020.9241 Inf 77.0780
4021.4326 Inf 77.0260
4021.9409 Inf 76.7680
4022.4492 Inf 77.1650
4022.9578 Inf 77.1360
4023.4661 Inf 76.8950
4023.9746 Inf 76.3370
4024.4829 Inf 76.1650
4024.9912 Inf 76.8820
4025.4998 Inf 76.9840
4026.0081 Inf 77.0620
4026.5166 Inf 76.8330
4027.0249 Inf 76.6790
4027.5332 Inf 77.3030
4028.0417 Inf 77.2520
4028.5500 Inf 77.1510
4029.0586 Inf 76.6770
4029.5669 Inf 76.9110
4030.0752 Inf 77.2670
4030.5837 Inf 77.2860
4031.0920 Inf 76.3680
4031.6006 Inf 76.3530
4032.1089 Inf 77.6190
4032.6172 Inf 77.4170
4033.1257 Inf 76.9840
4033.6340 Inf 77.1500
4034.1426 Inf 77.6900
4034.6509 Inf 76.9800
4035.1592 Inf 77.0750
4035.6677 Inf 77.2040
4036.1760 Inf 76.4860
4036.6846 Inf 76.7790
4037.1929 Inf 77.1750
4037.7014 Inf 77.0450
4038.2097 Inf 76.9450
4038.7180 Inf 76.8720
4039.2266 Inf 77.2100
4039.7349 Inf 77.3940
4040.2434 Inf 77.4370
4040.7517 Inf 76.8490
4041.2600 Inf 77.0280
4041.7686 Inf 77.1470
4042.2769 Inf 76.5780
4042.7854 Inf 77.3170
4043.2937 Inf 77.4980
4043.8020 Inf 77.6320
4044.3105 Inf 77.1450
4044.8188 Inf 77.0210
4045.3274 Inf 77.3420
4045.8357 Inf 76.7720
4046.3440 Inf 76.8270
4046.8525 Inf 76.8190
4047.3608 Inf 77.0470
4047.8694 Inf 77.3280
4048.3777 Inf 76.8310
4048.8860 Inf 77.4530
4049.3945 Inf 77.0620
4049.9028 Inf 76.7790
4050.4114 Inf 77.5950
4050.9197 Inf 77.2770
4051.4280 Inf 76.5460
4051.9365 Inf 76.8680
4052.4448 Inf 77.2650
4052.9534 Inf 77.9710
4053.4617 Inf 77.6270
4053.9702 Inf 77.5250
4054.4785 Inf 77.4710
4054.9868 Inf 77.5780
4055.4951 Inf 77.0090
4056.0037 Inf 77.3100
4056.5120 Inf 77.0780
4057.0205 Inf 77.2200
4057.5288 Inf 77.1430
4058.0371 Inf 77.3080
4058.5457 Inf 77.0030
4059.0540 Inf 77.1440
4059.5625 Inf 77.1540
4060.0708 Inf 76.9390
4060.5791 Inf 77.3530
4061.0876 Inf 77.2790
4061.5959 Inf 77.3350
4062.1045 Inf 77.2770
4062.6128 Inf 77.0840
4063.1211 Inf 76.3170
4063.6296 Inf 76.9210
4064.1379 Inf 78.0400
4064.6465 Inf 77.2330
4065.1548 Inf 76.7730
4065.6631 Inf 76.8520
4066.1716 Inf 77.1790
4066.6799 Inf 76.8540
4067.1885 Inf 77.5290
4067.6968 Inf 77.6420
4068.2051 Inf 77.5800
4068.7136 Inf 77.7910
4069.2219 Inf 77.6020
4069.7305 Inf 77.0760
4070.2388 Inf 77.3170
4070.7473 Inf 77.0970
4071.2556 Inf 77.5740
4071.7639 Inf 77.3990
4072.2725 Inf 77.1340
4072.7808 Inf 76.9020
4073.2893 Inf 77.0650
4073.7976 Inf 77.1540
4074.3059 Inf 77.5910
4074.8145 Inf 78.0680
4075.3228 Inf 77.6810
4075.8313 Inf 77.3860
4076.3396 Inf 77.1600
4076.8479 Inf 77.5630
4077.3564 Inf 77.6660
4077.8647 Inf 77.3730
4078.3733 Inf 76.9120
4078.8816 Inf 76.9280
4079.3899 Inf 77.0860
4079.8984 Inf 77.3340
4080.4067 Inf 77.4890
4080.9153 Inf 76.9770
4081.4236 Inf 77.0760
4081.9319 Inf 76.9940
4082.4404 Inf 77.1980
4082.9487 Inf 77.4200
4083.4573 Inf 77.5260
4083.9656 Inf 77.7430
4084.4741 Inf 77.1190
4084.9824 Inf 77.4050
4085.4907 Inf 77.1130
4085.9993 Inf 77.4310
4086.5076 Inf 77.3820
4087.0161 Inf 77.0760
4087.5244 Inf 77.5060
4088.0327 Inf 77.3320
4088.5413 Inf 77.6530
4089.0496 Inf 77.7070
4089.5581 Inf 77.3920
4090.0664 Inf 77.2820
4090.5747 Inf 77.8650
4091.0830 Inf 77.3350
4091.5916 Inf 76.5970
4092.0999 Inf 77.4010
4092.6084 Inf 77.6750
4093.1167 Inf 77.1020
4093.6250 Inf 77.5060
4094.1335 Inf 76.8840
4094.6418 Inf 76.4150
4095.1504 Inf 77.1600
4095.6587 Inf 77.5060
4096.1670 Inf 77.3580
4096.6753 Inf 77.0460
4097.1841 Inf 76.9450
4097.6924 Inf 77.2610
4098.2007 Inf 77.5940
4098.7090 Inf 77.8310
4099.2173 Inf 77.2970
4099.7261 Inf 77.0710
4100.2344 Inf 77.4100
4100.7427 Inf 77.7980
4101.2510 Inf 77.5260
4101.7593 Inf 77.3450
4102.2681 Inf 78.3230
4102.7764 Inf 77.6780
4103.2847 Inf 77.1270
4103.7930 Inf 77.2150
4104.3013 Inf 77.8490
4104.8101 Inf 77.4450
4105.3184 Inf 77.5900
4105.8267 Inf 77.0110
4106.3350 Inf 77.3790
4106.8433 Inf 76.8370
4107.3521 Inf 77.3970
4107.8604 Inf 77.2160
4108.3687 Inf 77.5630
4108.8770 Inf 77.3440
4109.3857 Inf 77.7580
4109.8940 Inf 77.9300
4110.4023 Inf 77.8370
4110.9106 Inf 77.9530
4111.4189 Inf 77.6190
4111.9277 Inf 77.4280
4112.4360 Inf 77.5600
4112.9443 Inf 77.8670
4113.4526 Inf 77.8060
4113.9609 Inf 77.4520
4114.4697 Inf 77.6210
4114.9780 Inf 78.0980
4115.4863 Inf 78.4040
4115.9946 Inf 77.6950
4116.5029 Inf 76.8260
4117.0117 Inf 77.5630
4117.5200 Inf 77.9140
4118.0283 Inf 77.4890
4118.5366 Inf 77.3290
4119.0449 Inf 77.0380
4119.5537 Inf 77.4840
4120.0620 Inf 76.9860
4120.5703 Inf 76.7830
