~Version Information
VERS. 2.0 : CWLS LOG ASCII STANDARD - VERSION 2.0
WRAP. NO : One line per depth step

SLVN.  2.14.3.1 (64bit) : Silistener Version Number
DTVN. Ultima: 8.1.18.0 (64bit) : DTS Version Number

~Well Information
#MNEM.UNIT VALUE/NAME :DESCRIPTION 
STRT.M -0 : START DEPTH
STOP.M 5498.8389 : STOP DEPTH
STEP.M 0.5084 : STEP
NULL.M -9999 : NULL VALUE
COMP. EBS : COMPANY
WELL. EBST-4-3H : WELL
FLD. EBS_MOC : FIELD
LOC. S2_CAMP : LOCATION
SRVC.  : SERVICE COMPANY
DATE. 01/05/2023 : LOG DATE
CNTY.  : COUNTY
STAT.  : STATE
CTRY.  : COUNTRY
API.  : API NUMBER

~Curve Information
#MNEM.UNITS API CODES :DESCRIPTION OF MNEMONIC
DEPT.M	: Depth
TEMP.°C	: Baseline
TEMP.°C	: Fast (10s)

~Parameter Information
#MNEM.UNIT VALUE/NAME :DESCRIPTION 
DTSF. 1.000000 : DTS Stretch Factor
DTZO.M 0.00 : DTS Zero Offset

~A Log Data
# ...
3195.7932 Inf 61.7140
3196.3018 Inf 61.6460
3196.8101 Inf 61.7930
3197.3186 Inf 61.7540
3197.8269 Inf 61.6590
3198.3352 Inf 61.6790
3198.8437 Inf 61.5130
3199.3521 Inf 61.5730
3199.8606 Inf 61.6330
3200.3689 Inf 62.0730
3200.8772 Inf 61.5240
3201.3857 Inf 61.3760
3201.8940 Inf 61.4510
3202.4026 Inf 61.4180
3202.9109 Inf 61.6960
3203.4192 Inf 61.5570
3203.9277 Inf 61.6670
3204.4360 Inf 61.2180
3204.9446 Inf 61.5980
3205.4529 Inf 61.6530
3205.9612 Inf 61.5000
3206.4697 Inf 61.9940
3206.9780 Inf 61.5620
3207.4866 Inf 62.0680
3207.9949 Inf 61.7820
3208.5034 Inf 61.7500
3209.0117 Inf 61.5550
3209.5200 Inf 61.4440
3210.0286 Inf 61.8670
3210.5369 Inf 61.7390
3211.0454 Inf 62.3090
3211.5537 Inf 62.2860
3212.0620 Inf 62.3740
3212.5703 Inf 62.3280
3213.0789 Inf 61.8430
3213.5872 Inf 61.7040
3214.0957 Inf 61.9030
3214.6040 Inf 62.3970
3215.1123 Inf 62.1660
3215.6208 Inf 61.9100
3216.1292 Inf 62.2450
3216.6377 Inf 62.0700
3217.1460 Inf 61.6530
3217.6543 Inf 62.0600
3218.1628 Inf 62.4570
3218.6711 Inf 62.2980
3219.1797 Inf 62.5250
3219.6880 Inf 62.0450
3220.1963 Inf 61.7150
3220.7048 Inf 62.3130
3221.2131 Inf 62.0260
3221.7217 Inf 62.1260
3222.2300 Inf 62.0320
3222.7383 Inf 61.6570
3223.2468 Inf 61.9740
3223.7551 Inf 62.2250
3224.2637 Inf 62.0910
3224.7720 Inf 61.7980
3225.2805 Inf 62.1110
3225.7888 Inf 61.9170
3226.2971 Inf 62.4540
3226.8057 Inf 62.1830
3227.3140 Inf 62.2530
3227.8225 Inf 62.2770
3228.3308 Inf 62.1050
3228.8391 Inf 61.9410
3229.3477 Inf 61.8970
3229.8560 Inf 62.4230
3230.3645 Inf 62.2140
3230.8728 Inf 61.6370
3231.3811 Inf 61.9370
3231.8896 Inf 62.2770
3232.3979 Inf 62.1820
3232.9065 Inf 62.1090
3233.4148 Inf 61.7060
3233.9231 Inf 62.3550
3234.4316 Inf 62.2110
3234.9399 Inf 61.9160
3235.4485 Inf 62.3670
3235.9568 Inf 62.4920
3236.4651 Inf 62.4290
3236.9736 Inf 61.9730
3237.4819 Inf 62.4230
3237.9905 Inf 62.3780
3238.4988 Inf 62.1110
3239.0071 Inf 61.8950
3239.5156 Inf 61.8590
3240.0239 Inf 62.2630
3240.5325 Inf 62.5630
3241.0408 Inf 62.5240
3241.5493 Inf 62.4230
3242.0576 Inf 61.8810
3242.5659 Inf 62.1910
3243.0745 Inf 62.1140
3243.5828 Inf 62.4710
3244.0913 Inf 62.3790
3244.5996 Inf 62.1360
3245.1079 Inf 62.3790
3245.6165 Inf 62.2370
3246.1248 Inf 62.2880
3246.6333 Inf 62.3510
3247.1416 Inf 62.1670
3247.6499 Inf 62.1040
3248.1582 Inf 62.4300
3248.6667 Inf 62.0890
3249.1750 Inf 62.3090
3249.6836 Inf 62.2780
3250.1919 Inf 62.5750
3250.7002 Inf 62.5330
3251.2087 Inf 62.3220
3251.7170 Inf 62.2600
3252.2256 Inf 62.3110
3252.7339 Inf 62.5020
3253.2422 Inf 62.4010
3253.7507 Inf 62.1140
3254.2590 Inf 62.3820
3254.7676 Inf 62.6500
3255.2759 Inf 62.5500
3255.7842 Inf 62.2960
3256.2927 Inf 62.3570
3256.8010 Inf 62.8120
3257.3096 Inf 62.3490
3257.8179 Inf 62.4140
3258.3264 Inf 62.4350
3258.8347 Inf 63.0860
3259.3430 Inf 62.8680
3259.8516 Inf 62.7950
3260.3599 Inf 62.5680
3260.8684 Inf 62.6330
3261.3767 Inf 62.6040
3261.8850 Inf 62.5740
3262.3936 Inf 62.4620
3262.9019 Inf 62.7810
3263.4104 Inf 62.8470
3263.9187 Inf 63.0370
3264.4270 Inf 62.9730
3264.9355 Inf 62.6730
3265.4438 Inf 62.7370
3265.9524 Inf 62.5670
3266.4607 Inf 62.3580
3266.9690 Inf 62.8860
3267.4775 Inf 62.3080
3267.9858 Inf 62.4300
3268.4944 Inf 62.8640
3269.0027 Inf 62.5680
3269.5110 Inf 62.9890
3270.0195 Inf 62.9510
3270.5278 Inf 62.8540
3271.0364 Inf 62.6520
3271.5447 Inf 62.8930
3272.0530 Inf 62.8060
3272.5615 Inf 63.1870
3273.0698 Inf 62.9660
3273.5784 Inf 63.0360
3274.0867 Inf 62.6920
3274.5952 Inf 62.8190
3275.1035 Inf 62.8940
3275.6118 Inf 63.0870
3276.1204 Inf 63.3150
3276.6287 Inf 63.0320
3277.1372 Inf 63.0410
3277.6455 Inf 62.9000
3278.1538 Inf 62.9520
3278.6624 Inf 63.1080
3279.1707 Inf 63.1340
3279.6792 Inf 63.3350
3280.1875 Inf 62.9550
3280.6958 Inf 62.8470
3281.2043 Inf 63.0460
3281.7126 Inf 62.9430
3282.2212 Inf 62.8140
3282.7295 Inf 63.0440
3283.2378 Inf 62.9710
3283.7461 Inf 62.9140
3284.2546 Inf 63.1050
3284.7629 Inf 63.1850
3285.2715 Inf 63.1740
3285.7798 Inf 63.1280
3286.2881 Inf 63.0090
3286.7966 Inf 62.8140
3287.3049 Inf 63.1120
3287.8135 Inf 63.2280
3288.3218 Inf 63.4610
3288.8301 Inf 63.2400
3289.3386 Inf 63.4230
3289.8469 Inf 63.0100
3290.3555 Inf 63.1990
3290.8638 Inf 63.3020
3291.3723 Inf 62.9560
3291.8806 Inf 63.0700
3292.3889 Inf 63.0240
3292.8975 Inf 63.6590
3293.4058 Inf 63.8260
3293.9143 Inf 63.2090
3294.4226 Inf 63.4690
3294.9309 Inf 63.6270
3295.4395 Inf 63.4170
3295.9478 Inf 63.2250
3296.4563 Inf 63.2080
3296.9646 Inf 63.2280
3297.4729 Inf 63.4780
3297.9814 Inf 63.3290
3298.4897 Inf 62.8990
3298.9983 Inf 63.2740
3299.5066 Inf 63.0540
3300.0149 Inf 63.4890
3300.5234 Inf 63.8670
3301.0317 Inf 63.4980
3301.5403 Inf 63.5760
3302.0486 Inf 63.7530
3302.5569 Inf 63.3160
3303.0654 Inf 63.6250
3303.5737 Inf 63.3380
3304.0823 Inf 63.5480
3304.5906 Inf 63.1550
3305.0991 Inf 63.8200
3305.6074 Inf 64.1410
3306.1157 Inf 63.8990
3306.6243 Inf 63.5780
3307.1326 Inf 64.1470
3307.6411 Inf 63.5090
3308.1494 Inf 63.8990
3308.6577 Inf 63.8160
3309.1663 Inf 63.5380
3309.6746 Inf 63.4280
3310.1831 Inf 64.0210
3310.6914 Inf 63.9940
3311.1997 Inf 63.7220
3311.7083 Inf 64.0510
3312.2166 Inf 63.9020
3312.7251 Inf 64.1110
3313.2334 Inf 63.8660
3313.7417 Inf 63.8130
3314.2502 Inf 64.0380
3314.7585 Inf 64.2610
3315.2671 Inf 64.0670
3315.7754 Inf 64.0810
3316.2837 Inf 63.9850
3316.7922 Inf 64.1130
3317.3005 Inf 64.1810
3317.8088 Inf 63.6980
3318.3174 Inf 63.9820
3318.8257 Inf 63.8910
3319.3340 Inf 63.7050
3319.8425 Inf 63.9770
3320.3508 Inf 63.8600
3320.8594 Inf 63.8060
3321.3677 Inf 63.8440
3321.8762 Inf 64.1290
3322.3845 Inf 64.5770
3322.8928 Inf 63.9120
3323.4014 Inf 63.9180
3323.9097 Inf 63.7460
3324.4182 Inf 64.2050
3324.9265 Inf 64.4510
3325.4348 Inf 63.5700
3325.9434 Inf 63.7880
3326.4517 Inf 64.1510
3326.9602 Inf 64.2980
3327.4685 Inf 64.3640
3327.9768 Inf 64.2150
3328.4854 Inf 64.1120
3328.9937 Inf 64.1410
3329.5022 Inf 64.2640
3330.0105 Inf 64.2320
3330.5188 Inf 64.1410
3331.0273 Inf 64.6450
3331.5356 Inf 64.4630
3332.0442 Inf 64.5290
3332.5525 Inf 64.4280
3333.0608 Inf 64.8010
3333.5693 Inf 64.8440
3334.0776 Inf 64.7600
3334.5862 Inf 64.2970
3335.0945 Inf 64.2510
3335.6028 Inf 64.4490
3336.1113 Inf 64.7330
3336.6196 Inf 64.9610
3337.1282 Inf 63.9770
3337.6365 Inf 63.9770
3338.1450 Inf 64.5540
3338.6533 Inf 64.2610
3339.1616 Inf 65.0010
3339.6702 Inf 64.6640
3340.1785 Inf 64.4490
3340.6870 Inf 64.6010
3341.1953 Inf 64.5460
3341.7036 Inf 64.2120
3342.2122 Inf 64.8310
3342.7205 Inf 64.3560
3343.2290 Inf 64.3330
3343.7373 Inf 64.4390
3344.2456 Inf 64.6440
3344.7542 Inf 64.8260
3345.2625 Inf 64.9690
3345.7710 Inf 64.4230
3346.2793 Inf 64.2170
3346.7876 Inf 64.8590
3347.2961 Inf 65.2280
3347.8044 Inf 64.5790
3348.3130 Inf 64.6610
3348.8213 Inf 64.8600
3349.3296 Inf 64.8320
3349.8381 Inf 64.9100
3350.3464 Inf 64.5190
3350.8550 Inf 64.7320
3351.3633 Inf 64.9480
3351.8716 Inf 64.7200
3352.3801 Inf 64.9680
3352.8884 Inf 64.7850
3353.3967 Inf 64.4650
3353.9053 Inf 64.7270
3354.4136 Inf 64.6170
3354.9221 Inf 64.6530
3355.4304 Inf 65.3770
3355.9387 Inf 65.2530
3356.4473 Inf 64.8670
3356.9556 Inf 64.8720
3357.4641 Inf 65.3090
3357.9724 Inf 65.4410
3358.4807 Inf 65.0530
3358.9893 Inf 65.0200
3359.4976 Inf 65.1430
3360.0061 Inf 65.4740
3360.5144 Inf 65.2660
3361.0227 Inf 65.1310
3361.5312 Inf 64.8750
3362.0396 Inf 65.0190
3362.5481 Inf 65.4280
3363.0564 Inf 65.1910
3363.5647 Inf 64.9560
3364.0732 Inf 65.6700
3364.5815 Inf 65.7940
3365.0901 Inf 65.3660
3365.5984 Inf 65.1360
3366.1067 Inf 64.9610
3366.6152 Inf 65.0420
3367.1235 Inf 65.4240
3367.6321 Inf 65.0210
3368.1404 Inf 65.3320
3368.6487 Inf 65.4840
3369.1572 Inf 65.3220
3369.6655 Inf 64.9080
3370.1741 Inf 65.3370
3370.6824 Inf 65.6620
3371.1909 Inf 65.3930
3371.6992 Inf 65.1400
3372.2075 Inf 64.9940
3372.7161 Inf 65.6070
3373.2244 Inf 65.5580
3373.7329 Inf 65.2710
3374.2412 Inf 65.4810
3374.7495 Inf 65.4600
3375.2581 Inf 65.1660
3375.7664 Inf 65.4900
3376.2749 Inf 65.6240
3376.7832 Inf 65.3740
3377.2915 Inf 65.4190
3377.8000 Inf 65.3220
3378.3083 Inf 65.2980
3378.8169 Inf 65.2870
3379.3252 Inf 65.1590
3379.8335 Inf 65.4140
3380.3420 Inf 65.7260
