~Version Information
VERS. 2.0 : CWLS LOG ASCII STANDARD - VERSION 2.0
WRAP. NO : One line per depth step

SLVN.  2.14.3.1 (64bit) : Silistener Version Number
DTVN. Ultima: 8.1.18.0 (64bit) : DTS Version Number

~Well Information
#MNEM.UNIT VALUE/NAME :DESCRIPTION 
STRT.M -0 : START DEPTH
STOP.M 5498.8389 : STOP DEPTH
STEP.M 0.5084 : STEP
NULL.M -9999 : NULL VALUE
COMP. EBS : COMPANY
WELL. EBST-4-3H : WELL
FLD. EBS_MOC : FIELD
LOC. S2_CAMP : LOCATION
SRVC.  : SERVICE COMPANY
DATE. 01/05/2023 : LOG DATE
CNTY.  : COUNTY
STAT.  : STATE
CTRY.  : COUNTRY
API.  : API NUMBER

~Curve Information
#MNEM.UNITS API CODES :DESCRIPTION OF MNEMONIC
DEPT.M	: Depth
TEMP.°C	: Baseline
TEMP.°C	: Fast (10s)

~Parameter Information
#MNEM.UNIT VALUE/NAME :DESCRIPTION 
DTSF. 1.000000 : DTS Stretch Factor
DTZO.M 0.00 : DTS Zero Offset

~A Log Data
# ...
4121.0786 Inf 77.7440
4121.5869 Inf 77.5220
4122.0957 Inf 77.6410
4122.6040 Inf 78.0120
4123.1123 Inf 77.2840
4123.6206 Inf 77.3340
4124.1289 Inf 77.1960
4124.6377 Inf 77.6190
4125.1460 Inf 77.5470
4125.6543 Inf 76.9610
4126.1626 Inf 76.9610
4126.6709 Inf 77.9060
4127.1792 Inf 77.7350
4127.6880 Inf 77.9340
4128.1963 Inf 77.0120
4128.7046 Inf 77.7180
4129.2129 Inf 77.7830
4129.7212 Inf 77.6450
4130.2300 Inf 77.3050
4130.7383 Inf 77.0980
4131.2466 Inf 77.9630
4131.7549 Inf 77.7490
4132.2632 Inf 78.2730
4132.7720 Inf 78.0570
4133.2803 Inf 77.2460
4133.7886 Inf 77.7930
4134.2969 Inf 78.4920
4134.8052 Inf 77.7390
4135.3140 Inf 77.7410
4135.8223 Inf 77.4940
4136.3306 Inf 77.3390
4136.8389 Inf 77.7280
4137.3472 Inf 78.1770
4137.8560 Inf 77.8480
4138.3643 Inf 77.8980
4138.8726 Inf 77.6490
4139.3809 Inf 77.7830
4139.8892 Inf 77.5660
4140.3979 Inf 77.6550
4140.9062 Inf 77.7480
4141.4146 Inf 77.5530
4141.9229 Inf 77.7340
4142.4316 Inf 77.5810
4142.9399 Inf 77.5060
4143.4482 Inf 77.3670
4143.9565 Inf 77.0620
4144.4648 Inf 77.3790
4144.9736 Inf 77.9900
4145.4819 Inf 77.6010
4145.9902 Inf 77.5870
4146.4985 Inf 77.7110
4147.0068 Inf 77.6220
4147.5156 Inf 77.7300
4148.0239 Inf 76.7640
4148.5322 Inf 76.8140
4149.0405 Inf 77.0520
4149.5488 Inf 77.1140
4150.0576 Inf 77.7530
4150.5659 Inf 78.1250
4151.0742 Inf 78.0070
4151.5825 Inf 77.1750
4152.0908 Inf 77.7640
4152.5996 Inf 77.7170
4153.1079 Inf 78.2790
4153.6162 Inf 77.7410
4154.1245 Inf 77.5260
4154.6328 Inf 77.2280
4155.1416 Inf 77.5150
4155.6499 Inf 77.4590
4156.1582 Inf 77.8830
4156.6665 Inf 77.8130
4157.1748 Inf 77.4950
4157.6836 Inf 77.7040
4158.1919 Inf 77.1210
4158.7002 Inf 78.1200
4159.2085 Inf 77.2610
4159.7168 Inf 77.5780
4160.2251 Inf 77.6330
4160.7339 Inf 78.1070
4161.2422 Inf 78.1780
4161.7505 Inf 77.8380
4162.2588 Inf 77.6450
4162.7671 Inf 77.8870
4163.2759 Inf 77.8560
4163.7842 Inf 77.0910
4164.2925 Inf 78.0160
4164.8008 Inf 78.1810
4165.3091 Inf 78.0860
4165.8179 Inf 77.2760
4166.3262 Inf 77.4460
4166.8345 Inf 77.3940
4167.3428 Inf 77.1490
4167.8511 Inf 78.1040
4168.3599 Inf 77.6850
4168.8682 Inf 77.5400
4169.3765 Inf 77.6510
4169.8848 Inf 77.6650
4170.3931 Inf 78.0440
4170.9019 Inf 78.2560
4171.4102 Inf 78.0950
4171.9185 Inf 77.5000
4172.4268 Inf 77.7760
4172.9351 Inf 77.9400
4173.4438 Inf 77.6060
4173.9521 Inf 77.2810
4174.4604 Inf 76.9850
4174.9687 Inf 77.9170
4175.4775 Inf 78.3840
4175.9858 Inf 78.0900
4176.4941 Inf 77.3240
4177.0024 Inf 76.8410
4177.5107 Inf 77.3940
4178.0195 Inf 78.2750
4178.5278 Inf 77.9040
4179.0361 Inf 77.5240
4179.5444 Inf 77.6290
4180.0527 Inf 77.6720
4180.5615 Inf 77.7660
4181.0698 Inf 77.6100
4181.5781 Inf 77.4540
4182.0864 Inf 77.8240
4182.5947 Inf 78.3380
4183.1035 Inf 78.2720
4183.6118 Inf 77.5390
4184.1201 Inf 76.6140
4184.6284 Inf 76.8460
4185.1367 Inf 77.3530
4185.6455 Inf 78.0040
4186.1538 Inf 78.3700
4186.6621 Inf 77.7690
4187.1704 Inf 77.6340
4187.6787 Inf 77.6100
4188.1875 Inf 78.0900
4188.6958 Inf 78.0530
4189.2041 Inf 78.1530
4189.7124 Inf 77.4680
4190.2207 Inf 77.9320
4190.7295 Inf 77.7940
4191.2378 Inf 77.8680
4191.7461 Inf 77.7740
4192.2544 Inf 78.0760
4192.7627 Inf 77.3920
4193.2715 Inf 78.1330
4193.7798 Inf 78.0050
4194.2881 Inf 77.9410
4194.7964 Inf 77.9700
4195.3047 Inf 77.6960
4195.8130 Inf 78.1430
4196.3218 Inf 77.9610
4196.8301 Inf 77.1760
4197.3384 Inf 77.1960
4197.8467 Inf 77.7230
4198.3550 Inf 77.6970
4198.8638 Inf 78.0870
4199.3721 Inf 77.6660
4199.8804 Inf 77.1540
4200.3887 Inf 78.0830
4200.8970 Inf 77.7790
4201.4058 Inf 77.5360
4201.9141 Inf 76.8950
4202.4224 Inf 77.9150
4202.9307 Inf 77.8690
4203.4390 Inf 77.6410
4203.9478 Inf 77.5400
4204.4561 Inf 77.0410
4204.9644 Inf 77.5530
4205.4727 Inf 78.5720
4205.9810 Inf 77.8800
4206.4897 Inf 77.4340
4206.9980 Inf 78.0470
4207.5063 Inf 77.6780
4208.0146 Inf 77.5270
4208.5234 Inf 77.3070
4209.0317 Inf 77.9750
4209.5400 Inf 77.7170
4210.0483 Inf 77.8160
4210.5566 Inf 77.8560
4211.0654 Inf 77.4970
4211.5737 Inf 77.4390
4212.0820 Inf 77.9290
4212.5903 Inf 77.7720
4213.0986 Inf 77.6430
4213.6074 Inf 77.7580
4214.1157 Inf 78.2520
4214.6240 Inf 77.6610
4215.1323 Inf 78.0930
4215.6406 Inf 78.0210
4216.1494 Inf 77.3560
4216.6577 Inf 77.1040
4217.1660 Inf 77.9900
4217.6743 Inf 77.7770
4218.1826 Inf 77.4930
4218.6914 Inf 77.6690
4219.1997 Inf 78.1560
4219.7080 Inf 78.2110
4220.2163 Inf 77.7140
4220.7246 Inf 77.3550
4221.2334 Inf 77.3950
4221.7417 Inf 77.2130
4222.2500 Inf 77.6890
4222.7583 Inf 78.2310
4223.2666 Inf 77.7640
4223.7754 Inf 77.0660
4224.2837 Inf 77.6390
4224.7920 Inf 78.0810
4225.3003 Inf 77.8490
4225.8086 Inf 77.4940
4226.3174 Inf 77.4340
4226.8257 Inf 77.8460
4227.3340 Inf 77.5380
4227.8423 Inf 77.8890
4228.3506 Inf 77.5610
4228.8594 Inf 77.3060
4229.3677 Inf 78.0190
4229.8760 Inf 77.6500
4230.3843 Inf 78.2290
4230.8926 Inf 77.4510
4231.4009 Inf 77.3300
4231.9097 Inf 78.0980
4232.4180 Inf 78.4210
4232.9263 Inf 78.1790
4233.4346 Inf 77.6700
4233.9429 Inf 77.9640
4234.4517 Inf 77.4940
4234.9600 Inf 78.5540
4235.4683 Inf 78.4740
4235.9766 Inf 77.8130
4236.4849 Inf 77.6050
4236.9937 Inf 77.6640
4237.5020 Inf 78.0530
4238.0103 Inf 78.0690
4238.5186 Inf 78.0400
4239.0273 Inf 77.9050
4239.5356 Inf 77.6600
4240.0439 Inf 78.1580
4240.5522 Inf 78.4650
4241.0605 Inf 77.1520
4241.5693 Inf 77.5860
4242.0776 Inf 77.9870
4242.5859 Inf 77.8860
4243.0942 Inf 77.8030
4243.6025 Inf 77.7860
4244.1113 Inf 77.9640
4244.6196 Inf 78.1480
4245.1279 Inf 78.3100
4245.6362 Inf 78.0380
4246.1445 Inf 77.1350
4246.6533 Inf 78.1840
4247.1616 Inf 78.1250
4247.6699 Inf 77.1400
4248.1782 Inf 77.7230
4248.6865 Inf 77.3130
4249.1953 Inf 78.2760
4249.7036 Inf 77.9740
4250.2119 Inf 78.1340
4250.7202 Inf 77.7680
4251.2285 Inf 77.8780
4251.7373 Inf 77.9050
4252.2456 Inf 77.9600
4252.7539 Inf 77.4670
4253.2622 Inf 77.4740
4253.7705 Inf 77.9990
4254.2793 Inf 77.5440
4254.7876 Inf 77.9410
4255.2959 Inf 77.7120
4255.8042 Inf 77.5800
4256.3125 Inf 77.6990
4256.8213 Inf 77.5970
4257.3296 Inf 77.8820
4257.8379 Inf 78.3180
4258.3462 Inf 77.4700
4258.8545 Inf 77.1350
4259.3633 Inf 77.1930
4259.8716 Inf 77.8560
4260.3799 Inf 77.3820
4260.8882 Inf 77.5410
4261.3965 Inf 77.2080
4261.9053 Inf 77.9010
4262.4136 Inf 77.3900
4262.9219 Inf 77.9640
4263.4302 Inf 78.3820
4263.9385 Inf 78.7110
4264.4473 Inf 77.9920
4264.9556 Inf 77.4990
4265.4639 Inf 77.7840
4265.9722 Inf 78.1920
4266.4805 Inf 76.8230
4266.9888 Inf 77.5860
4267.4976 Inf 77.9340
4268.0059 Inf 77.8000
4268.5142 Inf 77.7250
4269.0225 Inf 77.8640
4269.5308 Inf 77.5300
4270.0396 Inf 77.7260
4270.5479 Inf 77.9530
4271.0562 Inf 77.5900
4271.5645 Inf 77.7870
4272.0732 Inf 77.8750
4272.5815 Inf 78.1740
4273.0898 Inf 78.3510
4273.5981 Inf 77.6680
4274.1064 Inf 77.6160
4274.6152 Inf 77.8560
4275.1235 Inf 78.3570
4275.6318 Inf 78.1070
4276.1401 Inf 78.3240
4276.6484 Inf 77.6160
4277.1572 Inf 77.6790
4277.6655 Inf 78.1430
4278.1738 Inf 78.2670
4278.6821 Inf 77.8790
4279.1904 Inf 77.3360
4279.6992 Inf 77.5300
4280.2075 Inf 77.7820
4280.7158 Inf 78.0370
4281.2241 Inf 77.9920
4281.7324 Inf 78.1500
4282.2412 Inf 77.4700
4282.7495 Inf 77.5240
4283.2578 Inf 78.0280
4283.7661 Inf 78.0720
4284.2744 Inf 77.5440
4284.7832 Inf 77.7910
4285.2915 Inf 77.9780
4285.7998 Inf 77.9000
4286.3081 Inf 77.3760
4286.8164 Inf 77.8110
4287.3252 Inf 78.3820
4287.8335 Inf 77.6480
4288.3418 Inf 77.5450
4288.8501 Inf 77.8700
4289.3584 Inf 78.1760
4289.8672 Inf 78.0400
4290.3755 Inf 78.1050
4290.8838 Inf 77.9220
4291.3921 Inf 78.3040
4291.9004 Inf 77.4170
4292.4092 Inf 77.3640
4292.9175 Inf 77.2070
4293.4258 Inf 77.7660
4293.9341 Inf 78.1060
4294.4424 Inf 78.4390
4294.9512 Inf 77.1010
4295.4595 Inf 77.5170
4295.9678 Inf 77.4070
4296.4761 Inf 77.6170
4296.9844 Inf 78.7290
4297.4932 Inf 78.3470
4298.0015 Inf 78.3390
4298.5098 Inf 77.5800
4299.0181 Inf 78.0570
4299.5264 Inf 77.4540
4300.0352 Inf 78.1980
4300.5435 Inf 77.8730
4301.0518 Inf 78.1340
4301.5601 Inf 77.7000
4302.0684 Inf 78.0110
4302.5767 Inf 77.9870
4303.0854 Inf 78.0610
4303.5937 Inf 77.5780
4304.1021 Inf 77.9010
4304.6104 Inf 77.6890
4305.1191 Inf 78.1900
4305.6274 Inf 77.8480
