~Version Information
VERS. 2.0 : CWLS LOG ASCII STANDARD - VERSION 2.0
WRAP. NO : One line per depth step

SLVN.  2.14.3.1 (64bit) : Silistener Version Number
DTVN. Ultima: 8.1.18.0 (64bit) : DTS Version Number

~Well Information
#MNEM.UNIT VALUE/NAME :DESCRIPTION 
STRT.M -0 : START DEPTH
STOP.M 5498.8389 : STOP DEPTH
STEP.M 0.5084 : STEP
NULL.M -9999 : NULL VALUE
COMP. EBS : COMPANY
WELL. EBST-4-3H : WELL
FLD. EBS_MOC : FIELD
LOC. S2_CAMP : LOCATION
SRVC.  : SERVICE COMPANY
DATE. 01/05/2023 : LOG DATE
CNTY.  : COUNTY
STAT.  : STATE
CTRY.  : COUNTRY
API.  : API NUMBER

~Curve Information
#MNEM.UNITS API CODES :DESCRIPTION OF MNEMONIC
DEPT.M	: Depth
TEMP.°C	: Baseline
TEMP.°C	: Fast (10s)

~Parameter Information
#MNEM.UNIT VALUE/NAME :DESCRIPTION 
DTSF. 1.000000 : DTS Stretch Factor
DTZO.M 0.00 : DTS Zero Offset

~A Log Data
# ...
4861.3071 Inf 78.0820
4861.8154 Inf 77.4490
4862.3237 Inf 77.7340
4862.8320 Inf 77.2110
4863.3403 Inf 77.3520
4863.8491 Inf 77.5380
4864.3574 Inf 78.1190
4864.8657 Inf 77.9250
4865.3740 Inf 77.5840
4865.8823 Inf 77.4450
4866.3911 Inf 76.9470
4866.8994 Inf 77.9010
4867.4077 Inf 78.0500
4867.9160 Inf 78.1310
4868.4243 Inf 77.8110
4868.9331 Inf 77.6100
4869.4414 Inf 77.8220
4869.9497 Inf 78.0970
4870.4580 Inf 78.2760
4870.9663 Inf 78.8060
4871.4751 Inf 78.6070
4871.9834 Inf 77.9760
4872.4917 Inf 78.1840
4873.0000 Inf 77.3430
4873.5083 Inf 77.8680
4874.0171 Inf 77.5400
4874.5254 Inf 78.0330
4875.0337 Inf 77.7250
4875.5420 Inf 76.8910
4876.0503 Inf 77.1740
4876.5591 Inf 77.9870
4877.0674 Inf 77.7820
4877.5757 Inf 77.5330
4878.0840 Inf 78.0430
4878.5923 Inf 78.0100
4879.1011 Inf 78.0980
4879.6094 Inf 78.2600
4880.1177 Inf 77.5640
4880.6260 Inf 77.1690
4881.1343 Inf 77.3130
4881.6431 Inf 78.1310
4882.1514 Inf 77.8660
4882.6597 Inf 78.1430
4883.1680 Inf 79.3950
4883.6763 Inf 78.0710
4884.1851 Inf 77.7040
4884.6934 Inf 78.2000
4885.2017 Inf 78.0490
4885.7100 Inf 78.2990
4886.2183 Inf 77.8500
4886.7271 Inf 78.4150
4887.2354 Inf 78.5350
4887.7437 Inf 78.2310
4888.2520 Inf 77.6190
4888.7607 Inf 77.6720
4889.2690 Inf 78.1480
4889.7773 Inf 78.8530
4890.2856 Inf 78.3530
4890.7939 Inf 78.4370
4891.3027 Inf 78.1000
4891.8110 Inf 77.8480
4892.3193 Inf 78.2960
4892.8276 Inf 78.3230
4893.3359 Inf 77.5070
4893.8447 Inf 77.9930
4894.3530 Inf 78.2540
4894.8613 Inf 77.8440
4895.3696 Inf 78.0390
4895.8779 Inf 78.2170
4896.3867 Inf 77.7130
4896.8950 Inf 77.4720
4897.4033 Inf 77.9290
4897.9116 Inf 78.2730
4898.4199 Inf 78.0560
4898.9282 Inf 77.7920
4899.4370 Inf 78.3740
4899.9453 Inf 77.7310
4900.4536 Inf 78.2890
4900.9619 Inf 78.8350
4901.4702 Inf 77.8360
4901.9790 Inf 78.3980
4902.4873 Inf 77.7040
4902.9956 Inf 78.1160
4903.5039 Inf 78.0440
4904.0122 Inf 78.3940
4904.5210 Inf 78.0560
4905.0293 Inf 78.1570
4905.5376 Inf 78.3160
4906.0459 Inf 78.6030
4906.5542 Inf 77.8320
4907.0630 Inf 77.0830
4907.5713 Inf 78.4210
4908.0796 Inf 78.2770
4908.5879 Inf 78.0240
4909.0962 Inf 77.9650
4909.6050 Inf 78.2930
4910.1133 Inf 78.3220
4910.6216 Inf 78.0590
4911.1299 Inf 78.0900
4911.6382 Inf 77.8980
4912.1470 Inf 78.2290
4912.6553 Inf 78.1620
4913.1636 Inf 77.1890
4913.6719 Inf 77.9920
4914.1802 Inf 77.3290
4914.6890 Inf 77.9870
4915.1973 Inf 77.9610
4915.7056 Inf 77.7200
4916.2139 Inf 78.3380
4916.7222 Inf 78.0720
4917.2310 Inf 78.0220
4917.7393 Inf 78.5840
4918.2476 Inf 78.3550
4918.7559 Inf 77.9590
4919.2642 Inf 77.8730
4919.7729 Inf 77.9090
4920.2812 Inf 78.0180
4920.7896 Inf 78.2080
4921.2979 Inf 77.7310
4921.8066 Inf 77.9940
4922.3149 Inf 78.3860
4922.8232 Inf 77.9730
4923.3315 Inf 77.6660
4923.8398 Inf 77.5200
4924.3486 Inf 77.9950
4924.8569 Inf 77.4460
4925.3652 Inf 78.1420
4925.8735 Inf 77.7310
4926.3818 Inf 77.8890
4926.8906 Inf 77.8720
4927.3989 Inf 77.6300
4927.9072 Inf 77.6620
4928.4155 Inf 77.4730
4928.9238 Inf 77.3540
4929.4326 Inf 77.1880
4929.9409 Inf 77.4730
4930.4492 Inf 78.4240
4930.9575 Inf 78.2210
4931.4658 Inf 78.0400
4931.9746 Inf 77.4080
4932.4829 Inf 77.7270
4932.9912 Inf 77.9880
4933.4995 Inf 77.4870
4934.0078 Inf 78.3720
4934.5161 Inf 77.8910
4935.0249 Inf 77.6890
4935.5332 Inf 78.6950
4936.0415 Inf 78.6490
4936.5498 Inf 77.6750
4937.0581 Inf 78.6430
4937.5669 Inf 77.5410
4938.0752 Inf 77.3170
4938.5835 Inf 77.8160
4939.0918 Inf 78.0150
4939.6001 Inf 77.9510
4940.1089 Inf 77.9540
4940.6172 Inf 77.6840
4941.1255 Inf 77.6010
4941.6338 Inf 77.4240
4942.1421 Inf 78.5700
4942.6509 Inf 77.8300
4943.1592 Inf 77.5990
4943.6675 Inf 77.3320
4944.1758 Inf 77.0940
4944.6841 Inf 78.2890
4945.1929 Inf 78.0450
4945.7012 Inf 77.9700
4946.2095 Inf 78.0670
4946.7178 Inf 78.4510
4947.2261 Inf 78.0030
4947.7349 Inf 77.2140
4948.2432 Inf 77.2300
4948.7515 Inf 78.0120
4949.2598 Inf 77.9460
4949.7681 Inf 78.3130
4950.2769 Inf 78.5630
4950.7852 Inf 78.1370
4951.2935 Inf 78.6810
4951.8018 Inf 77.3630
4952.3101 Inf 76.8240
4952.8188 Inf 78.0280
4953.3271 Inf 77.4570
4953.8354 Inf 77.2070
4954.3437 Inf 77.1830
4954.8525 Inf 77.4500
4955.3608 Inf 77.1480
4955.8691 Inf 77.6870
4956.3774 Inf 77.9930
4956.8857 Inf 78.0220
4957.3945 Inf 77.9360
4957.9028 Inf 77.7120
4958.4111 Inf 77.8150
4958.9194 Inf 77.4200
4959.4277 Inf 78.4190
4959.9365 Inf 77.8790
4960.4448 Inf 78.1170
4960.9531 Inf 77.9880
4961.4614 Inf 78.6550
4961.9697 Inf 78.5540
4962.4785 Inf 78.2310
4962.9868 Inf 77.3850
4963.4951 Inf 77.8960
4964.0034 Inf 77.7540
4964.5117 Inf 77.7890
4965.0205 Inf 77.8130
4965.5288 Inf 77.9520
4966.0371 Inf 77.9770
4966.5454 Inf 78.2220
4967.0537 Inf 78.0540
4967.5620 Inf 78.5370
4968.0708 Inf 78.0340
4968.5791 Inf 77.7750
4969.0874 Inf 77.1470
4969.5957 Inf 77.9610
4970.1040 Inf 78.1350
4970.6128 Inf 77.4960
4971.1211 Inf 77.6970
4971.6294 Inf 78.1650
4972.1377 Inf 78.6760
4972.6460 Inf 78.1600
4973.1548 Inf 78.2630
4973.6631 Inf 78.0670
4974.1714 Inf 78.1580
4974.6797 Inf 78.0770
4975.1880 Inf 78.0770
4975.6968 Inf 77.7700
4976.2051 Inf 77.6920
4976.7134 Inf 77.5420
4977.2217 Inf 77.8310
4977.7300 Inf 77.8610
4978.2388 Inf 78.5830
4978.7471 Inf 77.8360
4979.2554 Inf 78.1670
4979.7637 Inf 78.1430
4980.2720 Inf 78.0040
4980.7808 Inf 77.8760
4981.2891 Inf 78.6890
4981.7974 Inf 77.9690
4982.3057 Inf 77.9440
4982.8140 Inf 78.0320
4983.3228 Inf 77.9680
4983.8311 Inf 77.3210
4984.3394 Inf 77.5890
4984.8477 Inf 78.5160
4985.3560 Inf 78.0980
4985.8647 Inf 77.7510
4986.3730 Inf 77.6480
4986.8813 Inf 77.2360
4987.3896 Inf 77.8820
4987.8984 Inf 78.1130
4988.4067 Inf 77.7940
4988.9150 Inf 78.0260
4989.4233 Inf 77.9460
4989.9316 Inf 77.7020
4990.4404 Inf 78.0540
4990.9487 Inf 77.7330
4991.4570 Inf 77.3700
4991.9653 Inf 77.3720
4992.4736 Inf 78.6030
4992.9824 Inf 77.9020
4993.4907 Inf 76.7150
4993.9990 Inf 77.2300
4994.5073 Inf 78.0210
4995.0156 Inf 78.0320
4995.5244 Inf 77.4460
4996.0327 Inf 77.3630
4996.5410 Inf 78.1420
4997.0493 Inf 77.7300
4997.5576 Inf 76.6600
4998.0664 Inf 76.8870
4998.5747 Inf 77.9000
4999.0830 Inf 77.9730
4999.5913 Inf 77.5840
5000.0996 Inf 77.5070
5000.6084 Inf 77.7780
5001.1167 Inf 76.9830
5001.6250 Inf 78.0740
5002.1333 Inf 77.9630
5002.6416 Inf 78.3120
5003.1499 Inf 77.0000
5003.6587 Inf 77.0860
5004.1670 Inf 77.8160
5004.6753 Inf 78.4120
5005.1836 Inf 77.9140
5005.6919 Inf 77.9750
5006.2007 Inf 77.5550
5006.7090 Inf 77.7990
5007.2173 Inf 77.9840
5007.7256 Inf 77.4780
5008.2339 Inf 77.3470
5008.7427 Inf 78.1810
5009.2510 Inf 77.9300
5009.7593 Inf 78.7710
5010.2676 Inf 78.6630
5010.7759 Inf 77.6070
5011.2847 Inf 77.0160
5011.7930 Inf 77.9680
5012.3013 Inf 78.0670
5012.8096 Inf 77.8640
5013.3179 Inf 77.4020
5013.8267 Inf 78.0500
5014.3350 Inf 77.8950
5014.8433 Inf 77.5730
5015.3516 Inf 77.6120
5015.8599 Inf 77.4420
5016.3687 Inf 77.3340
5016.8770 Inf 78.0010
5017.3853 Inf 78.5690
5017.8936 Inf 78.5410
5018.4023 Inf 77.3820
5018.9106 Inf 77.6200
5019.4189 Inf 77.9920
5019.9272 Inf 77.2760
5020.4355 Inf 78.0690
5020.9443 Inf 77.9070
5021.4526 Inf 77.1720
5021.9609 Inf 76.5680
5022.4692 Inf 77.2550
5022.9775 Inf 77.7390
5023.4863 Inf 77.9410
5023.9946 Inf 78.2610
5024.5029 Inf 78.4820
5025.0112 Inf 78.6190
5025.5195 Inf 77.3650
5026.0283 Inf 78.0460
5026.5366 Inf 77.3570
5027.0449 Inf 78.0080
5027.5532 Inf 78.0670
5028.0615 Inf 77.1900
5028.5703 Inf 77.3330
5029.0786 Inf 77.4710
5029.5869 Inf 77.5910
5030.0952 Inf 77.6200
5030.6035 Inf 77.7960
5031.1123 Inf 77.6950
5031.6206 Inf 77.4400
5032.1289 Inf 77.7400
5032.6372 Inf 78.2400
5033.1455 Inf 78.4840
5033.6543 Inf 78.5520
5034.1626 Inf 78.2860
5034.6709 Inf 77.8800
5035.1792 Inf 77.4660
5035.6875 Inf 78.0550
5036.1963 Inf 77.6070
5036.7046 Inf 77.9610
5037.2129 Inf 77.5960
5037.7212 Inf 77.4560
5038.2295 Inf 78.1740
5038.7378 Inf 78.0200
5039.2466 Inf 77.8420
5039.7549 Inf 77.9050
5040.2632 Inf 78.2280
5040.7715 Inf 77.6780
5041.2798 Inf 76.9080
5041.7886 Inf 77.6540
5042.2969 Inf 78.6050
5042.8052 Inf 78.0150
5043.3135 Inf 78.0910
5043.8218 Inf 78.0680
5044.3306 Inf 77.6270
5044.8389 Inf 77.4120
5045.3472 Inf 77.3370
5045.8555 Inf 78.1410
