~Version Information
VERS. 2.0 : CWLS LOG ASCII STANDARD - VERSION 2.0
WRAP. NO : One line per depth step

SLVN.  2.14.3.1 (64bit) : Silistener Version Number
DTVN. Ultima: 8.1.18.0 (64bit) : DTS Version Number

~Well Information
#MNEM.UNIT VALUE/NAME :DESCRIPTION 
STRT.M -0 : START DEPTH
STOP.M 5498.8389 : STOP DEPTH
STEP.M 0.5084 : STEP
NULL.M -9999 : NULL VALUE
COMP. EBS : COMPANY
WELL. EBST-4-3H : WELL
FLD. EBS_MOC : FIELD
LOC. S2_CAMP : LOCATION
SRVC.  : SERVICE COMPANY
DATE. 01/05/2023 : LOG DATE
CNTY.  : COUNTY
STAT.  : STATE
CTRY.  : COUNTRY
API.  : API NUMBER

~Curve Information
#MNEM.UNITS API CODES :DESCRIPTION OF MNEMONIC
DEPT.M	: Depth
TEMP.°C	: Baseline
TEMP.°C	: Fast (10s)

~Parameter Information
#MNEM.UNIT VALUE/NAME :DESCRIPTION 
DTSF. 1.000000 : DTS Stretch Factor
DTZO.M 0.00 : DTS Zero Offset

~A Log Data
# ...
1715.3367 Inf 30.7310
1715.8451 Inf 30.8730
1716.3535 Inf 30.9360
1716.8619 Inf 31.1330
1717.3702 Inf 30.6760
1717.8787 Inf 30.6510
1718.3871 Inf 30.9990
1718.8955 Inf 31.0320
1719.4039 Inf 31.0310
1719.9124 Inf 30.8580
1720.4207 Inf 30.9030
1720.9291 Inf 30.9030
1721.4375 Inf 31.0050
1721.9459 Inf 30.7810
1722.4543 Inf 30.8480
1722.9626 Inf 31.2030
1723.4711 Inf 30.9530
1723.9795 Inf 30.9100
1724.4879 Inf 30.8910
1724.9963 Inf 31.0790
1725.5048 Inf 31.1270
1726.0131 Inf 31.2190
1726.5215 Inf 31.1450
1727.0299 Inf 31.1690
1727.5383 Inf 31.2450
1728.0468 Inf 31.1210
1728.5551 Inf 31.2470
1729.0635 Inf 31.4090
1729.5719 Inf 31.1870
1730.0803 Inf 31.2100
1730.5887 Inf 31.2140
1731.0970 Inf 31.4330
1731.6055 Inf 31.2520
1732.1139 Inf 31.2420
1732.6223 Inf 31.2590
1733.1307 Inf 31.3300
1733.6392 Inf 31.4930
1734.1475 Inf 31.5380
1734.6559 Inf 31.6690
1735.1643 Inf 31.6780
1735.6727 Inf 31.5090
1736.1812 Inf 31.3440
1736.6895 Inf 31.5380
1737.1979 Inf 31.6650
1737.7062 Inf 31.6050
1738.2146 Inf 31.9270
1738.7230 Inf 31.7440
1739.2314 Inf 31.6660
1739.7397 Inf 31.7450
1740.2482 Inf 31.9100
1740.7566 Inf 31.9020
1741.2650 Inf 31.5670
1741.7734 Inf 31.6800
1742.2819 Inf 31.7570
1742.7902 Inf 31.7420
1743.2986 Inf 31.8390
1743.8070 Inf 31.7430
1744.3154 Inf 31.6820
1744.8239 Inf 31.7900
1745.3322 Inf 31.8120
1745.8406 Inf 31.6640
1746.3490 Inf 31.7410
1746.8574 Inf 31.9220
1747.3658 Inf 31.6190
1747.8741 Inf 31.6110
1748.3826 Inf 31.6560
1748.8910 Inf 31.6550
1749.3994 Inf 31.7870
1749.9078 Inf 31.7350
1750.4163 Inf 31.7780
1750.9246 Inf 31.5930
1751.4330 Inf 31.6500
1751.9414 Inf 31.3890
1752.4498 Inf 31.5300
1752.9583 Inf 31.3750
1753.4666 Inf 31.5030
1753.9750 Inf 31.5090
1754.4834 Inf 31.5780
1754.9918 Inf 31.7040
1755.5002 Inf 31.7390
1756.0085 Inf 31.4650
1756.5170 Inf 31.6550
1757.0254 Inf 31.6860
1757.5338 Inf 31.4960
1758.0422 Inf 31.4060
1758.5507 Inf 31.7840
1759.0590 Inf 32.1140
1759.5674 Inf 32.0430
1760.0758 Inf 31.7950
1760.5842 Inf 31.8430
1761.0927 Inf 31.8560
1761.6010 Inf 31.8680
1762.1094 Inf 31.6820
1762.6178 Inf 31.6940
1763.1262 Inf 31.7090
1763.6346 Inf 31.5290
1764.1429 Inf 31.6620
1764.6514 Inf 31.6400
1765.1598 Inf 31.7060
1765.6682 Inf 31.8850
1766.1766 Inf 32.0450
1766.6851 Inf 31.8610
1767.1934 Inf 31.7510
1767.7018 Inf 31.4770
1768.2102 Inf 31.5460
1768.7186 Inf 31.6300
1769.2271 Inf 31.8540
1769.7354 Inf 31.7350
1770.2438 Inf 31.7050
1770.7522 Inf 31.9850
1771.2606 Inf 31.9170
1771.7690 Inf 31.7790
1772.2773 Inf 31.9190
1772.7856 Inf 31.9350
1773.2941 Inf 31.8080
1773.8025 Inf 32.0390
1774.3109 Inf 32.0900
1774.8193 Inf 32.2080
1775.3278 Inf 31.7220
1775.8361 Inf 31.9700
1776.3445 Inf 31.8060
1776.8529 Inf 31.6580
1777.3613 Inf 31.7670
1777.8698 Inf 31.6790
1778.3781 Inf 31.6590
1778.8865 Inf 31.8380
1779.3949 Inf 31.6320
1779.9033 Inf 31.8750
1780.4117 Inf 31.7840
1780.9200 Inf 31.7750
1781.4285 Inf 31.8760
1781.9369 Inf 31.9440
1782.4453 Inf 31.8320
1782.9537 Inf 31.6730
1783.4622 Inf 31.9420
1783.9705 Inf 32.0150
1784.4789 Inf 31.8220
1784.9873 Inf 31.8350
1785.4957 Inf 32.0910
1786.0042 Inf 31.7480
1786.5125 Inf 31.7530
1787.0209 Inf 32.0290
1787.5293 Inf 31.8910
1788.0377 Inf 32.0710
1788.5461 Inf 32.1400
1789.0544 Inf 32.0650
1789.5629 Inf 32.0860
1790.0713 Inf 32.0660
1790.5797 Inf 32.1560
1791.0881 Inf 32.1620
1791.5966 Inf 32.0990
1792.1049 Inf 32.3260
1792.6133 Inf 32.2480
1793.1217 Inf 32.0280
1793.6301 Inf 31.9900
1794.1385 Inf 32.3570
1794.6469 Inf 32.3350
1795.1553 Inf 32.2840
1795.6637 Inf 31.9930
1796.1721 Inf 32.1480
1796.6805 Inf 32.3290
1797.1888 Inf 32.4400
1797.6973 Inf 32.1350
1798.2057 Inf 32.3940
1798.7141 Inf 32.5010
1799.2225 Inf 32.6880
1799.7310 Inf 32.4190
1800.2393 Inf 32.5540
1800.7477 Inf 32.4830
1801.2561 Inf 32.8300
1801.7645 Inf 32.4610
1802.2729 Inf 32.8200
1802.7812 Inf 32.7630
1803.2897 Inf 32.5710
1803.7981 Inf 32.7130
1804.3065 Inf 32.7690
1804.8149 Inf 32.6240
1805.3232 Inf 32.6710
1805.8317 Inf 32.6870
1806.3401 Inf 32.8540
1806.8485 Inf 32.8370
1807.3569 Inf 32.6620
1807.8654 Inf 32.8520
1808.3737 Inf 33.0920
1808.8820 Inf 32.9750
1809.3904 Inf 32.8470
1809.8988 Inf 33.0320
1810.4072 Inf 32.9720
1810.9156 Inf 32.7190
1811.4240 Inf 32.6600
1811.9324 Inf 32.8640
1812.4408 Inf 33.2270
1812.9492 Inf 32.8310
1813.4576 Inf 32.9190
1813.9659 Inf 32.8550
1814.4744 Inf 33.2050
1814.9828 Inf 32.9290
1815.4912 Inf 32.8840
1815.9996 Inf 33.0340
1816.5081 Inf 32.8870
1817.0164 Inf 33.0130
1817.5248 Inf 32.9450
1818.0332 Inf 32.7440
1818.5416 Inf 32.9610
1819.0500 Inf 33.1170
1819.5583 Inf 32.8520
1820.0668 Inf 32.6200
1820.5752 Inf 32.9340
1821.0836 Inf 32.8660
1821.5920 Inf 32.8140
1822.1003 Inf 32.8790
1822.6088 Inf 32.4660
1823.1172 Inf 32.7890
1823.6256 Inf 33.2010
1824.1340 Inf 33.0900
1824.6425 Inf 33.1490
1825.1508 Inf 32.6990
1825.6592 Inf 32.8720
1826.1676 Inf 32.9280
1826.6760 Inf 33.0650
1827.1844 Inf 33.0340
1827.6927 Inf 32.9680
1828.2012 Inf 32.8010
1828.7096 Inf 32.7190
1829.2180 Inf 32.8190
1829.7264 Inf 33.0720
1830.2347 Inf 33.2960
1830.7432 Inf 33.2340
1831.2516 Inf 33.1060
1831.7600 Inf 33.2440
1832.2684 Inf 33.2690
1832.7769 Inf 33.1920
1833.2852 Inf 33.1960
1833.7936 Inf 33.1130
1834.3020 Inf 33.3840
1834.8104 Inf 33.3580
1835.3188 Inf 32.9070
1835.8271 Inf 33.3410
1836.3356 Inf 33.1950
1836.8440 Inf 33.0320
1837.3524 Inf 33.3080
1837.8608 Inf 33.0960
1838.3691 Inf 33.4070
1838.8776 Inf 33.1770
1839.3860 Inf 33.2930
1839.8944 Inf 33.2970
1840.4028 Inf 33.3190
1840.9113 Inf 33.4840
1841.4196 Inf 33.3900
1841.9280 Inf 33.3440
1842.4364 Inf 33.4410
1842.9448 Inf 33.4210
1843.4531 Inf 33.5530
1843.9615 Inf 33.2750
1844.4698 Inf 33.6810
1844.9783 Inf 33.3450
1845.4867 Inf 33.4990
1845.9951 Inf 33.3080
1846.5035 Inf 33.2960
1847.0118 Inf 33.5630
1847.5203 Inf 33.6130
1848.0287 Inf 33.5400
1848.5371 Inf 33.5440
1849.0455 Inf 33.6100
1849.5540 Inf 33.4050
1850.0623 Inf 33.6950
1850.5707 Inf 33.6100
1851.0791 Inf 33.4990
1851.5875 Inf 33.5480
1852.0959 Inf 33.3110
1852.6042 Inf 33.8480
1853.1127 Inf 33.5740
1853.6211 Inf 33.3090
1854.1295 Inf 33.7040
1854.6379 Inf 33.7590
1855.1462 Inf 33.7160
1855.6547 Inf 33.7130
1856.1631 Inf 33.7050
1856.6715 Inf 33.7310
1857.1799 Inf 33.8250
1857.6884 Inf 33.4570
1858.1967 Inf 33.7310
1858.7051 Inf 33.6670
1859.2135 Inf 33.4640
1859.7219 Inf 33.5290
1860.2303 Inf 33.5190
1860.7386 Inf 33.6860
1861.2471 Inf 33.6310
1861.7555 Inf 33.6720
1862.2639 Inf 33.5890
1862.7723 Inf 33.6640
1863.2806 Inf 33.6990
1863.7891 Inf 33.6600
1864.2975 Inf 33.8570
1864.8059 Inf 34.0130
1865.3143 Inf 33.9120
1865.8228 Inf 33.8620
1866.3311 Inf 33.5650
1866.8395 Inf 33.7740
1867.3479 Inf 33.9400
1867.8563 Inf 33.7630
1868.3647 Inf 33.8590
1868.8730 Inf 33.8050
1869.3815 Inf 34.0530
1869.8899 Inf 33.7630
1870.3983 Inf 33.8770
1870.9067 Inf 33.8020
1871.4150 Inf 34.0300
1871.9235 Inf 34.0430
1872.4319 Inf 34.0900
1872.9403 Inf 34.0000
1873.4487 Inf 33.9280
1873.9572 Inf 34.2350
1874.4655 Inf 34.3390
1874.9739 Inf 34.0330
1875.4823 Inf 34.0550
1875.9907 Inf 34.2070
1876.4991 Inf 34.3820
1877.0074 Inf 34.1980
1877.5159 Inf 34.0470
1878.0243 Inf 34.2520
1878.5326 Inf 34.0260
1879.0410 Inf 34.2440
1879.5494 Inf 34.3420
1880.0577 Inf 34.5270
1880.5662 Inf 34.4100
1881.0746 Inf 34.4130
1881.5830 Inf 34.4940
1882.0914 Inf 34.3260
1882.5999 Inf 34.2610
1883.1082 Inf 34.4070
1883.6166 Inf 34.2540
1884.1250 Inf 34.3100
1884.6334 Inf 34.4050
1885.1418 Inf 34.6000
1885.6501 Inf 34.5020
1886.1586 Inf 34.4020
1886.6670 Inf 34.3120
1887.1754 Inf 34.2250
1887.6838 Inf 34.2990
1888.1923 Inf 34.4680
1888.7006 Inf 34.5360
1889.2090 Inf 34.5490
1889.7174 Inf 34.4260
1890.2258 Inf 34.4630
1890.7343 Inf 34.4800
1891.2426 Inf 34.3440
1891.7510 Inf 34.3630
1892.2594 Inf 34.3390
1892.7678 Inf 34.6480
1893.2762 Inf 34.4540
1893.7845 Inf 34.3270
1894.2930 Inf 34.5980
1894.8014 Inf 34.7320
1895.3098 Inf 34.7290
1895.8182 Inf 34.5240
1896.3267 Inf 34.7510
1896.8350 Inf 34.6880
1897.3434 Inf 34.8410
1897.8518 Inf 34.8310
1898.3602 Inf 34.5980
1898.8687 Inf 34.7650
1899.3770 Inf 34.5240
1899.8854 Inf 34.4610
