~Version Information
VERS. 2.0 : CWLS LOG ASCII STANDARD - VERSION 2.0
WRAP. NO : One line per depth step

SLVN.  2.14.3.1 (64bit) : Silistener Version Number
DTVN. Ultima: 8.1.18.0 (64bit) : DTS Version Number

~Well Information
#MNEM.UNIT VALUE/NAME :DESCRIPTION 
STRT.M -0 : START DEPTH
STOP.M 5498.8389 : STOP DEPTH
STEP.M 0.5084 : STEP
NULL.M -9999 : NULL VALUE
COMP. EBS : COMPANY
WELL. EBST-4-3H : WELL
FLD. EBS_MOC : FIELD
LOC. S2_CAMP : LOCATION
SRVC.  : SERVICE COMPANY
DATE. 01/05/2023 : LOG DATE
CNTY.  : COUNTY
STAT.  : STATE
CTRY.  : COUNTRY
API.  : API NUMBER

~Curve Information
#MNEM.UNITS API CODES :DESCRIPTION OF MNEMONIC
DEPT.M	: Depth
TEMP.°C	: Baseline
TEMP.°C	: Fast (10s)

~Parameter Information
#MNEM.UNIT VALUE/NAME :DESCRIPTION 
DTSF. 1.000000 : DTS Stretch Factor
DTZO.M 0.00 : DTS Zero Offset

~A Log Data
# ...
3565.9075 Inf 69.5480
3566.4158 Inf 69.1900
3566.9243 Inf 69.6660
3567.4326 Inf 70.0540
3567.9409 Inf 69.9930
3568.4495 Inf 69.7540
3568.9578 Inf 70.0570
3569.4663 Inf 69.7490
3569.9746 Inf 69.6760
3570.4829 Inf 69.7600
3570.9915 Inf 69.3280
3571.4998 Inf 69.6520
3572.0083 Inf 69.9120
3572.5166 Inf 69.6950
3573.0249 Inf 70.1770
3573.5334 Inf 70.1990
3574.0417 Inf 70.0170
3574.5503 Inf 70.1340
3575.0586 Inf 70.9160
3575.5669 Inf 70.2180
3576.0754 Inf 69.9960
3576.5837 Inf 69.9600
3577.0923 Inf 69.9300
3577.6006 Inf 70.1770
3578.1089 Inf 70.6760
3578.6174 Inf 70.4100
3579.1257 Inf 70.0100
3579.6343 Inf 70.2650
3580.1426 Inf 70.1530
3580.6509 Inf 70.3350
3581.1594 Inf 70.4320
3581.6677 Inf 70.4590
3582.1763 Inf 70.0610
3582.6846 Inf 70.0760
3583.1931 Inf 70.4790
3583.7014 Inf 70.6620
3584.2097 Inf 69.9200
3584.7183 Inf 70.2190
3585.2266 Inf 70.7390
3585.7351 Inf 70.2550
3586.2434 Inf 70.0510
3586.7517 Inf 70.5430
3587.2603 Inf 70.6710
3587.7686 Inf 69.9880
3588.2771 Inf 70.2610
3588.7854 Inf 70.6590
3589.2937 Inf 70.6800
3589.8022 Inf 70.3250
3590.3105 Inf 70.0350
3590.8191 Inf 70.3610
3591.3274 Inf 70.9090
3591.8357 Inf 70.8340
3592.3442 Inf 70.3740
3592.8525 Inf 70.2340
3593.3611 Inf 69.9020
3593.8694 Inf 70.0880
3594.3777 Inf 70.2250
3594.8862 Inf 70.5680
3595.3945 Inf 70.6060
3595.9031 Inf 69.9070
3596.4114 Inf 70.3630
3596.9199 Inf 70.4480
3597.4282 Inf 70.3040
3597.9365 Inf 70.5510
3598.4448 Inf 70.5090
3598.9534 Inf 70.4970
3599.4617 Inf 70.4010
3599.9702 Inf 70.2770
3600.4785 Inf 70.6380
3600.9868 Inf 71.1640
3601.4954 Inf 71.2200
3602.0037 Inf 71.1510
3602.5122 Inf 70.8200
3603.0205 Inf 70.1250
3603.5288 Inf 70.1160
3604.0374 Inf 70.4010
3604.5457 Inf 70.5370
3605.0542 Inf 70.4450
3605.5625 Inf 71.0290
3606.0708 Inf 70.6960
3606.5793 Inf 70.7040
3607.0876 Inf 70.7830
3607.5962 Inf 70.8500
3608.1045 Inf 70.4740
3608.6128 Inf 70.6520
3609.1213 Inf 70.6210
3609.6296 Inf 70.9530
3610.1382 Inf 70.5770
3610.6465 Inf 70.8930
3611.1548 Inf 71.3340
3611.6633 Inf 70.7470
3612.1716 Inf 70.4730
3612.6802 Inf 70.3750
3613.1885 Inf 70.6270
3613.6970 Inf 70.9520
3614.2053 Inf 71.0100
3614.7136 Inf 70.5770
3615.2222 Inf 70.6780
3615.7305 Inf 70.8470
3616.2390 Inf 70.9990
3616.7473 Inf 71.5550
3617.2556 Inf 70.9540
3617.7642 Inf 70.9080
3618.2725 Inf 70.9310
3618.7810 Inf 71.4930
3619.2893 Inf 71.6940
3619.7976 Inf 71.1560
3620.3062 Inf 70.8550
3620.8145 Inf 71.0280
3621.3230 Inf 70.9850
3621.8313 Inf 71.2730
3622.3396 Inf 71.2250
3622.8481 Inf 71.0780
3623.3564 Inf 70.5730
3623.8650 Inf 70.3640
3624.3733 Inf 70.9000
3624.8816 Inf 71.3560
3625.3901 Inf 70.5960
3625.8984 Inf 71.6350
3626.4070 Inf 71.1090
3626.9153 Inf 70.7570
3627.4236 Inf 71.1090
3627.9321 Inf 70.9830
3628.4404 Inf 71.1650
3628.9490 Inf 71.2130
3629.4573 Inf 71.1150
3629.9658 Inf 71.3220
3630.4741 Inf 71.0210
3630.9824 Inf 70.9220
3631.4910 Inf 71.7330
3631.9993 Inf 71.5070
3632.5078 Inf 71.3540
3633.0161 Inf 71.0530
3633.5244 Inf 71.0620
3634.0327 Inf 70.9690
3634.5413 Inf 71.2870
3635.0496 Inf 71.3730
3635.5581 Inf 71.4980
3636.0664 Inf 71.2260
3636.5747 Inf 71.3440
3637.0833 Inf 70.8380
3637.5916 Inf 71.1550
3638.1001 Inf 71.1020
3638.6084 Inf 71.0760
3639.1167 Inf 71.0030
3639.6252 Inf 71.1050
3640.1335 Inf 71.9150
3640.6421 Inf 71.2820
3641.1504 Inf 71.7850
3641.6587 Inf 71.2300
3642.1672 Inf 71.3540
3642.6755 Inf 71.0330
3643.1841 Inf 71.4260
3643.6924 Inf 71.5350
3644.2007 Inf 71.2520
3644.7092 Inf 71.6540
3645.2175 Inf 71.9630
3645.7261 Inf 71.4920
3646.2344 Inf 71.7650
3646.7429 Inf 71.6070
3647.2512 Inf 71.8910
3647.7595 Inf 71.2670
3648.2681 Inf 70.7920
3648.7764 Inf 71.5650
3649.2849 Inf 71.8850
3649.7932 Inf 71.9960
3650.3015 Inf 71.7260
3650.8101 Inf 71.3510
3651.3184 Inf 71.3540
3651.8269 Inf 71.5850
3652.3352 Inf 71.6280
3652.8435 Inf 71.5200
3653.3521 Inf 71.6090
3653.8604 Inf 71.9190
3654.3689 Inf 71.9520
3654.8772 Inf 71.4900
3655.3855 Inf 71.3790
3655.8940 Inf 71.3230
3656.4023 Inf 71.8180
3656.9109 Inf 71.9600
3657.4192 Inf 72.1350
3657.9275 Inf 72.1820
3658.4360 Inf 71.6300
3658.9443 Inf 72.0880
3659.4529 Inf 71.7290
3659.9612 Inf 71.5580
3660.4695 Inf 71.1020
3660.9780 Inf 71.6630
3661.4863 Inf 72.0980
3661.9949 Inf 71.5300
3662.5032 Inf 71.8960
3663.0117 Inf 72.1430
3663.5200 Inf 71.2820
3664.0283 Inf 71.9250
3664.5369 Inf 71.3250
3665.0452 Inf 71.7270
3665.5537 Inf 72.4670
3666.0620 Inf 72.2040
3666.5703 Inf 71.7450
3667.0789 Inf 72.0780
3667.5872 Inf 71.4870
3668.0957 Inf 71.6760
3668.6040 Inf 72.1430
3669.1123 Inf 72.0740
3669.6206 Inf 72.1630
3670.1292 Inf 71.9220
3670.6375 Inf 72.1190
3671.1460 Inf 71.4670
3671.6543 Inf 71.5340
3672.1626 Inf 72.1100
3672.6711 Inf 71.9520
3673.1794 Inf 72.2740
3673.6880 Inf 72.4110
3674.1963 Inf 71.8010
3674.7046 Inf 71.6780
3675.2131 Inf 71.3560
3675.7214 Inf 72.0670
3676.2300 Inf 71.5960
3676.7383 Inf 71.9490
3677.2466 Inf 72.5980
3677.7551 Inf 72.1790
3678.2634 Inf 72.2400
3678.7720 Inf 72.7700
3679.2803 Inf 72.3980
3679.7888 Inf 72.3100
3680.2971 Inf 71.7000
3680.8054 Inf 71.9320
3681.3140 Inf 71.9420
3681.8223 Inf 72.5710
3682.3308 Inf 72.4320
3682.8391 Inf 71.7920
3683.3474 Inf 72.4920
3683.8560 Inf 72.2760
3684.3643 Inf 72.6160
3684.8728 Inf 72.0580
3685.3811 Inf 72.0900
3685.8894 Inf 71.9110
3686.3979 Inf 71.9940
3686.9062 Inf 72.3290
3687.4148 Inf 72.4710
3687.9231 Inf 72.0560
3688.4314 Inf 71.8760
3688.9399 Inf 72.4940
3689.4482 Inf 72.3450
3689.9568 Inf 72.5630
3690.4651 Inf 72.1540
3690.9734 Inf 72.4190
3691.4819 Inf 72.4830
3691.9902 Inf 72.4620
3692.4988 Inf 72.4070
3693.0071 Inf 72.1900
3693.5154 Inf 72.7060
3694.0239 Inf 72.3870
3694.5322 Inf 72.1780
3695.0408 Inf 72.2080
3695.5491 Inf 71.7950
3696.0576 Inf 72.5900
3696.5659 Inf 72.5300
3697.0742 Inf 72.3160
3697.5828 Inf 72.1020
3698.0911 Inf 72.4010
3698.5996 Inf 73.0940
3699.1079 Inf 72.2350
3699.6162 Inf 72.5780
3700.1248 Inf 72.6830
3700.6331 Inf 72.8000
3701.1416 Inf 72.8710
3701.6499 Inf 72.5080
3702.1582 Inf 72.2480
3702.6667 Inf 72.2960
3703.1750 Inf 72.5270
3703.6833 Inf 72.9290
3704.1919 Inf 73.2100
3704.7002 Inf 73.0220
3705.2085 Inf 72.8000
3705.7170 Inf 72.5890
3706.2253 Inf 72.5270
3706.7339 Inf 71.6330
3707.2422 Inf 72.4380
3707.7505 Inf 72.5200
3708.2590 Inf 72.9680
3708.7673 Inf 72.4810
3709.2759 Inf 72.7120
3709.7842 Inf 72.5990
3710.2925 Inf 72.8510
3710.8010 Inf 73.0080
3711.3093 Inf 72.7300
3711.8179 Inf 72.5970
3712.3262 Inf 72.9350
3712.8347 Inf 72.3190
3713.3430 Inf 73.0210
3713.8513 Inf 72.8760
3714.3599 Inf 72.9660
3714.8682 Inf 72.6230
3715.3767 Inf 72.7370
3715.8850 Inf 72.9660
3716.3933 Inf 73.1350
3716.9019 Inf 73.4920
3717.4102 Inf 73.1230
3717.9187 Inf 72.4240
3718.4270 Inf 72.3680
3718.9353 Inf 73.3060
3719.4438 Inf 73.7750
3719.9521 Inf 73.3770
3720.4607 Inf 72.5220
3720.9690 Inf 72.8430
3721.4773 Inf 73.0970
3721.9858 Inf 72.9870
3722.4941 Inf 72.6420
3723.0027 Inf 72.7580
3723.5110 Inf 72.7350
3724.0193 Inf 72.9560
3724.5278 Inf 72.5890
3725.0361 Inf 72.6430
3725.5447 Inf 72.7400
3726.0530 Inf 73.0210
3726.5613 Inf 72.7020
3727.0698 Inf 72.4060
3727.5781 Inf 72.9420
3728.0867 Inf 73.5160
3728.5950 Inf 73.1680
3729.1035 Inf 73.4710
3729.6118 Inf 72.9640
3730.1201 Inf 73.2030
3730.6287 Inf 73.1200
3731.1370 Inf 72.4250
3731.6455 Inf 72.6550
3732.1538 Inf 73.3680
3732.6621 Inf 73.1250
3733.1707 Inf 72.9350
3733.6790 Inf 73.0910
3734.1875 Inf 72.7140
3734.6958 Inf 72.8590
3735.2041 Inf 72.8770
3735.7126 Inf 73.0360
3736.2209 Inf 72.8170
3736.7295 Inf 73.2550
3737.2378 Inf 73.1290
3737.7461 Inf 72.8360
3738.2546 Inf 72.9450
3738.7629 Inf 73.1380
3739.2712 Inf 73.4420
3739.7798 Inf 72.5760
3740.2881 Inf 73.2280
3740.7964 Inf 72.7370
3741.3049 Inf 73.1480
3741.8132 Inf 72.6010
3742.3218 Inf 73.5320
3742.8301 Inf 73.6180
3743.3384 Inf 73.6920
3743.8469 Inf 73.6990
3744.3552 Inf 72.8620
3744.8638 Inf 72.8670
3745.3721 Inf 73.1840
3745.8806 Inf 73.1570
3746.3889 Inf 72.9260
3746.8972 Inf 73.4120
3747.4058 Inf 73.2560
3747.9141 Inf 73.7220
3748.4226 Inf 73.2940
3748.9309 Inf 73.5200
3749.4392 Inf 73.4570
3749.9478 Inf 73.7140
3750.4561 Inf 73.8030
