~Version Information
VERS. 2.0 : CWLS LOG ASCII STANDARD - VERSION 2.0
WRAP. NO : One line per depth step

SLVN.  2.14.3.1 (64bit) : Silistener Version Number
DTVN. Ultima: 8.1.18.0 (64bit) : DTS Version Number

~Well Information
#MNEM.UNIT VALUE/NAME :DESCRIPTION 
STRT.M -0 : START DEPTH
STOP.M 5498.8389 : STOP DEPTH
STEP.M 0.5084 : STEP
NULL.M -9999 : NULL VALUE
COMP. EBS : COMPANY
WELL. EBST-4-3H : WELL
FLD. EBS_MOC : FIELD
LOC. S2_CAMP : LOCATION
SRVC.  : SERVICE COMPANY
DATE. 01/05/2023 : LOG DATE
CNTY.  : COUNTY
STAT.  : STATE
CTRY.  : COUNTRY
API.  : API NUMBER

~Curve Information
#MNEM.UNITS API CODES :DESCRIPTION OF MNEMONIC
DEPT.M	: Depth
TEMP.°C	: Baseline
TEMP.°C	: Fast (10s)

~Parameter Information
#MNEM.UNIT VALUE/NAME :DESCRIPTION 
DTSF. 1.000000 : DTS Stretch Factor
DTZO.M 0.00 : DTS Zero Offset

~A Log Data
# ...
1345.2227 Inf 23.9360
1345.7310 Inf 24.0880
1346.2394 Inf 24.2690
1346.7478 Inf 24.3910
1347.2562 Inf 24.3310
1347.7646 Inf 24.1700
1348.2729 Inf 23.8090
1348.7814 Inf 24.0070
1349.2898 Inf 24.5400
1349.7982 Inf 24.7360
1350.3066 Inf 24.6590
1350.8149 Inf 24.8260
1351.3234 Inf 24.4740
1351.8317 Inf 24.4300
1352.3401 Inf 24.1860
1352.8485 Inf 23.9270
1353.3569 Inf 24.0980
1353.8654 Inf 24.3150
1354.3737 Inf 24.4160
1354.8821 Inf 23.8830
1355.3905 Inf 23.7000
1355.8989 Inf 23.7210
1356.4073 Inf 23.8090
1356.9156 Inf 24.3760
1357.4241 Inf 24.5200
1357.9325 Inf 24.6910
1358.4409 Inf 24.6840
1358.9493 Inf 24.3910
1359.4576 Inf 24.2120
1359.9661 Inf 23.9950
1360.4745 Inf 23.9880
1360.9829 Inf 24.0590
1361.4913 Inf 24.3790
1361.9998 Inf 24.2380
1362.5081 Inf 23.8160
1363.0165 Inf 23.7280
1363.5249 Inf 23.8120
1364.0333 Inf 23.9950
1364.5417 Inf 24.2780
1365.0500 Inf 24.3660
1365.5585 Inf 24.6480
1366.0669 Inf 24.3840
1366.5753 Inf 24.3400
1367.0837 Inf 24.0080
1367.5920 Inf 23.7270
1368.1005 Inf 23.8810
1368.6089 Inf 23.8910
1369.1173 Inf 23.9310
1369.6257 Inf 23.9230
1370.1342 Inf 23.9510
1370.6425 Inf 23.9890
1371.1509 Inf 23.9240
1371.6593 Inf 24.1720
1372.1677 Inf 24.3060
1372.6761 Inf 24.3940
1373.1844 Inf 24.2800
1373.6929 Inf 24.3210
1374.2013 Inf 24.0200
1374.7097 Inf 23.7310
1375.2181 Inf 23.7040
1375.7264 Inf 24.0950
1376.2349 Inf 24.2710
1376.7433 Inf 24.0720
1377.2517 Inf 23.7560
1377.7601 Inf 23.7010
1378.2686 Inf 23.8720
1378.7769 Inf 23.8530
1379.2853 Inf 24.1240
1379.7937 Inf 24.1750
1380.3021 Inf 24.2590
1380.8105 Inf 24.2060
1381.3188 Inf 24.1260
1381.8273 Inf 23.9510
1382.3357 Inf 23.5740
1382.8441 Inf 23.5370
1383.3525 Inf 23.9110
1383.8608 Inf 24.1330
1384.3693 Inf 24.0490
1384.8777 Inf 23.6780
1385.3861 Inf 23.6930
1385.8945 Inf 23.8490
1386.4030 Inf 23.8230
1386.9113 Inf 23.9180
1387.4196 Inf 23.9370
1387.9280 Inf 24.0620
1388.4364 Inf 23.9790
1388.9448 Inf 23.7670
1389.4532 Inf 23.4340
1389.9615 Inf 23.3050
1390.4700 Inf 23.3870
1390.9784 Inf 23.5900
1391.4868 Inf 23.9160
1391.9952 Inf 23.8760
1392.5035 Inf 23.4240
1393.0120 Inf 23.6390
1393.5204 Inf 23.8240
1394.0288 Inf 23.7700
1394.5372 Inf 23.9370
1395.0457 Inf 23.9520
1395.5540 Inf 23.8390
1396.0624 Inf 23.9020
1396.5708 Inf 23.6860
1397.0792 Inf 23.5410
1397.5876 Inf 23.5520
1398.0959 Inf 23.5310
1398.6044 Inf 23.7760
1399.1128 Inf 23.8040
1399.6212 Inf 23.4660
1400.1296 Inf 23.3580
1400.6379 Inf 23.2530
1401.1464 Inf 23.4370
1401.6548 Inf 23.6990
1402.1632 Inf 23.9820
1402.6716 Inf 23.9810
1403.1801 Inf 23.8590
1403.6884 Inf 23.5160
1404.1968 Inf 23.6420
1404.7052 Inf 23.5000
1405.2136 Inf 23.1440
1405.7220 Inf 23.3110
1406.2303 Inf 23.2330
1406.7388 Inf 23.2860
1407.2472 Inf 23.0160
1407.7556 Inf 22.7160
1408.2640 Inf 22.9090
1408.7725 Inf 23.1980
1409.2808 Inf 23.2920
1409.7892 Inf 23.3500
1410.2976 Inf 23.1830
1410.8060 Inf 23.1040
1411.3145 Inf 22.9690
1411.8228 Inf 22.9840
1412.3312 Inf 22.6770
1412.8396 Inf 22.2330
1413.3480 Inf 22.2630
1413.8564 Inf 22.3530
1414.3647 Inf 22.4150
1414.8732 Inf 21.9860
1415.3816 Inf 22.1380
1415.8900 Inf 22.3460
1416.3984 Inf 22.5010
1416.9069 Inf 22.5250
1417.4152 Inf 22.6800
1417.9236 Inf 22.6230
1418.4320 Inf 22.4160
1418.9404 Inf 22.1490
1419.4489 Inf 22.0480
1419.9572 Inf 21.3730
1420.4656 Inf 20.6540
1420.9740 Inf 21.0400
1421.4824 Inf 20.8900
1421.9907 Inf 20.9960
1422.4991 Inf 20.9660
1423.0074 Inf 20.8390
1423.5159 Inf 21.3910
1424.0243 Inf 21.6150
1424.5327 Inf 21.8720
1425.0411 Inf 21.5930
1425.5496 Inf 21.4340
1426.0579 Inf 21.1800
1426.5663 Inf 20.9580
1427.0747 Inf 20.2030
1427.5831 Inf 19.8640
1428.0916 Inf 19.9740
1428.5999 Inf 20.1070
1429.1083 Inf 20.1870
1429.6167 Inf 20.4250
1430.1251 Inf 20.3480
1430.6335 Inf 20.7300
1431.1418 Inf 21.6630
1431.6503 Inf 22.0600
1432.1587 Inf 22.3440
1432.6671 Inf 22.1950
1433.1755 Inf 21.9800
1433.6840 Inf 21.9390
1434.1923 Inf 21.5160
1434.7007 Inf 20.9130
1435.2091 Inf 20.7640
1435.7175 Inf 20.3610
1436.2260 Inf 20.7050
1436.7343 Inf 21.1180
1437.2427 Inf 21.0990
1437.7511 Inf 21.1920
1438.2595 Inf 21.5620
1438.7679 Inf 21.9790
1439.2762 Inf 22.6920
1439.7847 Inf 22.5620
1440.2931 Inf 22.5300
1440.8015 Inf 22.5980
1441.3099 Inf 22.4220
1441.8184 Inf 22.0370
1442.3267 Inf 21.8770
1442.8351 Inf 21.3770
1443.3435 Inf 21.1850
1443.8519 Inf 21.3630
1444.3604 Inf 21.3890
1444.8687 Inf 21.7380
1445.3771 Inf 21.6890
1445.8855 Inf 21.8450
1446.3939 Inf 22.5260
1446.9023 Inf 22.9580
1447.4106 Inf 23.0110
1447.9191 Inf 23.3450
1448.4275 Inf 23.1720
1448.9359 Inf 22.9320
1449.4443 Inf 22.9150
1449.9528 Inf 22.5440
1450.4611 Inf 22.1650
1450.9695 Inf 22.1510
1451.4779 Inf 22.1420
1451.9863 Inf 22.1840
1452.4948 Inf 22.3490
1453.0031 Inf 22.1040
1453.5115 Inf 22.3300
1454.0199 Inf 22.7660
1454.5283 Inf 23.2100
1455.0367 Inf 23.3700
1455.5450 Inf 23.3250
1456.0535 Inf 23.1880
1456.5619 Inf 23.1530
1457.0702 Inf 22.7620
1457.5786 Inf 22.5530
1458.0870 Inf 22.7070
1458.5955 Inf 22.7380
1459.1038 Inf 22.6750
1459.6122 Inf 22.8800
1460.1206 Inf 22.6970
1460.6290 Inf 22.5750
1461.1375 Inf 22.6780
1461.6458 Inf 22.7650
1462.1542 Inf 23.3920
1462.6626 Inf 23.6780
1463.1710 Inf 23.8980
1463.6794 Inf 23.6430
1464.1877 Inf 23.2440
1464.6962 Inf 22.8590
1465.2046 Inf 22.9190
1465.7130 Inf 22.9370
1466.2214 Inf 22.6240
1466.7299 Inf 22.9200
1467.2382 Inf 23.1170
1467.7466 Inf 22.8450
1468.2550 Inf 22.5650
1468.7634 Inf 22.6180
1469.2719 Inf 22.9120
1469.7802 Inf 23.2730
1470.2886 Inf 23.6560
1470.7970 Inf 23.6430
1471.3054 Inf 23.4260
1471.8138 Inf 23.3870
1472.3221 Inf 23.1850
1472.8306 Inf 22.9960
1473.3390 Inf 22.7870
1473.8474 Inf 23.0600
1474.3558 Inf 23.2250
1474.8643 Inf 23.1340
1475.3726 Inf 23.3180
1475.8810 Inf 23.0260
1476.3894 Inf 22.8810
1476.8978 Inf 23.0740
1477.4062 Inf 23.4160
1477.9146 Inf 23.8650
1478.4230 Inf 24.0200
1478.9314 Inf 23.9970
1479.4398 Inf 23.6040
1479.9482 Inf 23.2640
1480.4565 Inf 23.1360
1480.9650 Inf 23.2540
1481.4734 Inf 23.1360
1481.9818 Inf 23.2370
1482.4902 Inf 23.0550
1482.9987 Inf 23.0780
1483.5070 Inf 22.9520
1484.0154 Inf 23.0140
1484.5238 Inf 23.1070
1485.0322 Inf 23.4410
1485.5406 Inf 23.8970
1486.0490 Inf 24.0880
1486.5574 Inf 24.0600
1487.0658 Inf 23.5760
1487.5742 Inf 23.3730
1488.0826 Inf 23.1880
1488.5909 Inf 22.8940
1489.0994 Inf 22.7530
1489.6078 Inf 23.0270
1490.1162 Inf 23.1630
1490.6246 Inf 23.0830
1491.1331 Inf 22.7380
1491.6414 Inf 22.8860
1492.1497 Inf 23.2530
1492.6581 Inf 23.6310
1493.1665 Inf 24.3470
1493.6749 Inf 24.2430
1494.1833 Inf 24.0930
1494.6917 Inf 23.8610
1495.2001 Inf 23.4650
1495.7085 Inf 23.2000
1496.2169 Inf 23.2310
1496.7253 Inf 23.1200
1497.2336 Inf 23.0690
1497.7421 Inf 23.1370
1498.2505 Inf 23.0070
1498.7589 Inf 22.9050
1499.2673 Inf 23.1660
1499.7758 Inf 23.3550
1500.2841 Inf 23.8110
1500.7925 Inf 24.0450
1501.3009 Inf 24.2890
1501.8093 Inf 24.1500
1502.3177 Inf 24.0160
1502.8260 Inf 23.6440
1503.3345 Inf 23.2690
1503.8429 Inf 23.0690
1504.3513 Inf 23.3490
1504.8597 Inf 23.1040
1505.3680 Inf 23.0930
1505.8765 Inf 23.0610
1506.3849 Inf 22.9890
1506.8933 Inf 23.1410
1507.4017 Inf 23.4480
1507.9102 Inf 24.0030
1508.4185 Inf 24.3410
1508.9269 Inf 24.4480
1509.4353 Inf 24.5050
1509.9437 Inf 24.0180
1510.4521 Inf 23.6710
1510.9604 Inf 23.2650
1511.4689 Inf 23.2670
1511.9773 Inf 23.2750
1512.4857 Inf 23.0800
1512.9941 Inf 23.2550
1513.5024 Inf 23.0220
1514.0109 Inf 23.1690
1514.5193 Inf 23.2680
1515.0277 Inf 23.3850
1515.5361 Inf 23.8530
1516.0446 Inf 24.2110
1516.5529 Inf 24.1420
1517.0613 Inf 24.2010
1517.5697 Inf 24.0140
1518.0781 Inf 23.8210
1518.5865 Inf 23.1800
1519.0948 Inf 23.1450
1519.6033 Inf 23.2350
1520.1117 Inf 23.1350
1520.6201 Inf 23.2940
1521.1285 Inf 23.1970
1521.6368 Inf 23.1420
1522.1453 Inf 23.1700
1522.6537 Inf 23.4910
1523.1621 Inf 24.0910
1523.6705 Inf 24.2330
1524.1790 Inf 24.1200
1524.6873 Inf 24.0900
1525.1957 Inf 23.8270
1525.7041 Inf 23.8390
1526.2125 Inf 23.3430
1526.7209 Inf 23.3470
1527.2292 Inf 23.2490
1527.7375 Inf 23.2750
1528.2460 Inf 22.9970
1528.7544 Inf 23.0910
1529.2628 Inf 23.3260
1529.7712 Inf 23.4910
