~Version Information
VERS. 2.0 : CWLS LOG ASCII STANDARD - VERSION 2.0
WRAP. NO : One line per depth step

SLVN.  2.14.3.1 (64bit) : Silistener Version Number
DTVN. Ultima: 8.1.18.0 (64bit) : DTS Version Number

~Well Information
#MNEM.UNIT VALUE/NAME :DESCRIPTION 
STRT.M -0 : START DEPTH
STOP.M 5498.8389 : STOP DEPTH
STEP.M 0.5084 : STEP
NULL.M -9999 : NULL VALUE
COMP. EBS : COMPANY
WELL. EBST-4-3H : WELL
FLD. EBS_MOC : FIELD
LOC. S2_CAMP : LOCATION
SRVC.  : SERVICE COMPANY
DATE. 01/05/2023 : LOG DATE
CNTY.  : COUNTY
STAT.  : STATE
CTRY.  : COUNTRY
API.  : API NUMBER

~Curve Information
#MNEM.UNITS API CODES :DESCRIPTION OF MNEMONIC
DEPT.M	: Depth
TEMP.°C	: Baseline
TEMP.°C	: Fast (10s)

~Parameter Information
#MNEM.UNIT VALUE/NAME :DESCRIPTION 
DTSF. 1.000000 : DTS Stretch Factor
DTZO.M 0.00 : DTS Zero Offset

~A Log Data
0.0000 Inf 26.7980
0.5084 Inf 27.0400
1.0168 Inf 27.7720
1.5252 Inf 27.2760
2.0336 Inf 26.5390
2.5420 Inf 25.4540
3.0504 Inf 21.1900
3.5588 Inf 18.5880
4.0672 Inf 18.4250
4.5756 Inf 18.6550
5.0840 Inf 18.6960
5.5924 Inf 18.7660
6.1008 Inf 18.6950
6.6092 Inf 18.6490
7.1176 Inf 18.6140
7.6260 Inf 18.6040
8.1344 Inf 18.5810
8.6428 Inf 18.6490
9.1512 Inf 18.6260
9.6596 Inf 18.4940
10.1680 Inf 18.5860
10.6764 Inf 18.6240
11.1848 Inf 18.5970
11.6932 Inf 18.4850
12.2016 Inf 18.5460
12.7100 Inf 18.4720
13.2184 Inf 18.5590
13.7268 Inf 18.6760
14.2352 Inf 18.5660
14.7436 Inf 18.5790
15.2520 Inf 18.4920
15.7604 Inf 18.5890
16.2688 Inf 18.6120
16.7772 Inf 18.6240
17.2856 Inf 18.5230
17.7939 Inf 18.5420
18.3023 Inf 18.5260
18.8107 Inf 18.5480
19.3191 Inf 18.5540
19.8275 Inf 18.6120
20.3359 Inf 18.6260
20.8443 Inf 18.3260
21.3527 Inf 18.4240
21.8611 Inf 18.4830
22.3695 Inf 18.5640
22.8779 Inf 18.5520
23.3863 Inf 18.4570
23.8947 Inf 18.5080
24.4031 Inf 18.4240
24.9115 Inf 18.4460
25.4199 Inf 18.2640
25.9283 Inf 18.5140
26.4367 Inf 18.5810
26.9451 Inf 18.3890
27.4535 Inf 18.4280
27.9619 Inf 18.4980
28.4703 Inf 18.3290
28.9787 Inf 18.2750
29.4871 Inf 18.3480
29.9955 Inf 18.5330
30.5039 Inf 18.4420
31.0123 Inf 18.4330
31.5207 Inf 18.6490
32.0291 Inf 18.6310
32.5375 Inf 18.5040
33.0459 Inf 18.3840
33.5543 Inf 18.5640
34.0627 Inf 18.5620
34.5711 Inf 18.4710
35.0795 Inf 18.5950
35.5879 Inf 18.4490
36.0963 Inf 18.4560
36.6047 Inf 18.4660
37.1131 Inf 18.5160
37.6215 Inf 18.4430
38.1299 Inf 18.5000
38.6383 Inf 18.5310
39.1467 Inf 18.4860
39.6551 Inf 18.5540
40.1635 Inf 18.4440
40.6719 Inf 18.4060
41.1803 Inf 18.4610
41.6887 Inf 18.5550
42.1971 Inf 18.6410
42.7055 Inf 18.5650
43.2139 Inf 18.4320
43.7223 Inf 18.5420
44.2307 Inf 18.5380
44.7391 Inf 18.4840
45.2475 Inf 18.5640
45.7559 Inf 18.4340
46.2643 Inf 18.3430
46.7727 Inf 18.3300
47.2811 Inf 18.4430
47.7895 Inf 18.5580
48.2979 Inf 18.4990
48.8063 Inf 18.4850
49.3147 Inf 18.4920
49.8231 Inf 18.5420
50.3315 Inf 18.5450
50.8399 Inf 18.5560
51.3483 Inf 18.4480
51.8567 Inf 18.4830
52.3651 Inf 18.5450
52.8734 Inf 18.4720
53.3818 Inf 18.4840
53.8902 Inf 18.5450
54.3986 Inf 18.4930
54.9070 Inf 18.4220
55.4154 Inf 18.4530
55.9238 Inf 18.5380
56.4322 Inf 18.4860
56.9406 Inf 18.5120
57.4490 Inf 18.4380
57.9574 Inf 18.3860
58.4658 Inf 18.4290
58.9742 Inf 18.6040
59.4826 Inf 18.4280
59.9910 Inf 18.3800
60.4994 Inf 18.4720
61.0078 Inf 18.4630
61.5162 Inf 18.4030
62.0246 Inf 18.3910
62.5330 Inf 18.4570
63.0414 Inf 18.3600
63.5498 Inf 18.3200
64.0582 Inf 18.4370
64.5666 Inf 18.3940
65.0750 Inf 18.4250
65.5834 Inf 18.3050
66.0918 Inf 18.3920
66.6002 Inf 18.4730
67.1086 Inf 18.5280
67.6170 Inf 18.4280
68.1254 Inf 18.4560
68.6338 Inf 18.3890
69.1422 Inf 18.5390
69.6506 Inf 18.4470
70.1590 Inf 18.3640
70.6674 Inf 18.4120
71.1758 Inf 18.4380
71.6842 Inf 18.4360
72.1926 Inf 18.4980
72.7010 Inf 18.3780
73.2094 Inf 18.4800
73.7178 Inf 18.4130
74.2262 Inf 18.4870
74.7346 Inf 18.3850
75.2430 Inf 18.3040
75.7514 Inf 18.3620
76.2598 Inf 18.4830
76.7682 Inf 18.4410
77.2766 Inf 18.5340
77.7850 Inf 18.4920
78.2934 Inf 18.4940
78.8018 Inf 18.5620
79.3102 Inf 18.3950
79.8186 Inf 18.3770
80.3270 Inf 18.3720
80.8354 Inf 18.4660
81.3438 Inf 18.5150
81.8522 Inf 18.5120
82.3606 Inf 18.4090
82.8690 Inf 18.3840
83.3774 Inf 18.4180
83.8858 Inf 18.3840
84.3942 Inf 18.3190
84.9026 Inf 18.3050
85.4110 Inf 18.4650
85.9194 Inf 18.4520
86.4278 Inf 18.4180
86.9362 Inf 18.4330
87.4446 Inf 18.4260
87.9529 Inf 18.2620
88.4613 Inf 18.4340
88.9697 Inf 18.4150
89.4781 Inf 18.3740
89.9865 Inf 18.4540
90.4949 Inf 18.4250
91.0033 Inf 18.3600
91.5117 Inf 18.4960
92.0201 Inf 18.4360
92.5285 Inf 18.3830
93.0369 Inf 18.3310
93.5453 Inf 18.3310
94.0537 Inf 18.4090
94.5621 Inf 18.4300
95.0705 Inf 18.5610
95.5789 Inf 18.5790
96.0873 Inf 18.3580
96.5957 Inf 18.4660
97.1041 Inf 18.5780
97.6125 Inf 18.3830
98.1209 Inf 18.5530
98.6293 Inf 18.5730
99.1377 Inf 18.3600
99.6461 Inf 18.2810
100.1545 Inf 18.4100
100.6629 Inf 18.4300
101.1713 Inf 18.4350
101.6797 Inf 18.3820
102.1881 Inf 18.4250
102.6965 Inf 18.5890
103.2049 Inf 18.5500
103.7133 Inf 18.4520
104.2217 Inf 18.3260
104.7301 Inf 18.4290
105.2385 Inf 18.3320
105.7469 Inf 18.3050
106.2553 Inf 18.4920
106.7637 Inf 18.4270
107.2721 Inf 18.2910
107.7805 Inf 18.4540
108.2889 Inf 18.3100
108.7973 Inf 18.3350
109.3057 Inf 18.4950
109.8141 Inf 18.3460
110.3225 Inf 18.1810
110.8309 Inf 18.2470
111.3393 Inf 18.2160
111.8477 Inf 18.2600
112.3561 Inf 18.3970
112.8645 Inf 18.3950
113.3729 Inf 18.2570
113.8813 Inf 18.2520
114.3897 Inf 18.2950
114.8981 Inf 18.3560
115.4065 Inf 18.5040
115.9149 Inf 18.5280
116.4233 Inf 18.4360
116.9317 Inf 18.3040
117.4401 Inf 18.4970
117.9485 Inf 18.3920
118.4569 Inf 18.3820
118.9653 Inf 18.4390
119.4737 Inf 18.3320
119.9821 Inf 18.5370
120.4905 Inf 18.5400
120.9989 Inf 18.3570
121.5073 Inf 18.4670
122.0157 Inf 18.3580
122.5241 Inf 18.3620
123.0324 Inf 18.3310
123.5408 Inf 18.3210
124.0492 Inf 18.3760
124.5576 Inf 18.4170
125.0660 Inf 18.3270
125.5744 Inf 18.4530
126.0828 Inf 18.3860
126.5912 Inf 18.3700
127.0996 Inf 18.3720
127.6080 Inf 18.4070
128.1164 Inf 18.4320
128.6248 Inf 18.4410
129.1332 Inf 18.4130
129.6416 Inf 18.2390
130.1500 Inf 18.2250
130.6584 Inf 18.4140
131.1668 Inf 18.3990
131.6752 Inf 18.4680
132.1836 Inf 18.2900
132.6920 Inf 18.2310
133.2004 Inf 18.4670
133.7088 Inf 18.2560
134.2172 Inf 18.3690
134.7256 Inf 18.3400
135.2340 Inf 18.2870
135.7424 Inf 18.3700
136.2508 Inf 18.4150
136.7592 Inf 18.1350
137.2676 Inf 18.0980
137.7760 Inf 18.2550
138.2844 Inf 18.2460
138.7928 Inf 18.3030
139.3012 Inf 18.3410
139.8096 Inf 18.2470
140.3180 Inf 18.2830
140.8264 Inf 18.2520
141.3348 Inf 18.1810
141.8432 Inf 18.3520
142.3516 Inf 18.2360
142.8600 Inf 18.2600
143.3684 Inf 18.3790
143.8768 Inf 18.2800
144.3852 Inf 18.2700
144.8936 Inf 18.3250
145.4020 Inf 18.2680
145.9104 Inf 18.2860
146.4188 Inf 18.3610
146.9272 Inf 18.2230
147.4356 Inf 18.4350
147.9440 Inf 18.4370
148.4524 Inf 18.3930
148.9608 Inf 18.5220
149.4692 Inf 18.5840
149.9776 Inf 18.4180
150.4860 Inf 18.4440
150.9944 Inf 18.3940
151.5028 Inf 18.3300
152.0112 Inf 18.4780
152.5196 Inf 18.6380
153.0280 Inf 18.8480
153.5364 Inf 18.7960
154.0448 Inf 18.8370
154.5532 Inf 19.7150
155.0616 Inf 20.6320
155.5700 Inf 20.8490
156.0784 Inf 20.6480
156.5868 Inf 20.0980
157.0952 Inf 19.5090
157.6036 Inf 19.0830
158.1119 Inf 18.7660
158.6203 Inf 18.8920
159.1287 Inf 18.9120
159.6371 Inf 18.5200
160.1455 Inf 18.5350
160.6539 Inf 18.0370
161.1623 Inf 17.4970
161.6707 Inf 17.5960
162.1791 Inf 17.8210
162.6875 Inf 17.7740
163.1959 Inf 17.8620
163.7043 Inf 18.0560
164.2127 Inf 18.0530
164.7211 Inf 17.8570
165.2295 Inf 18.0060
165.7379 Inf 18.3810
166.2463 Inf 18.2380
166.7547 Inf 18.3170
167.2631 Inf 18.3090
167.7715 Inf 18.4160
168.2799 Inf 18.5110
168.7883 Inf 18.5120
169.2967 Inf 18.5580
169.8051 Inf 18.3860
170.3135 Inf 18.2970
170.8219 Inf 18.3720
171.3303 Inf 18.4900
171.8387 Inf 18.2240
172.3471 Inf 18.0340
172.8555 Inf 18.0190
173.3639 Inf 18.1190
173.8723 Inf 18.3290
174.3807 Inf 18.4420
174.8891 Inf 18.4600
175.3975 Inf 18.5330
175.9059 Inf 18.4300
176.4143 Inf 18.6890
176.9227 Inf 18.7900
177.4311 Inf 19.0020
177.9395 Inf 19.1420
178.4479 Inf 19.1940
178.9563 Inf 19.0870
179.4647 Inf 19.0420
179.9731 Inf 18.9830
180.4815 Inf 18.7900
180.9899 Inf 18.6860
181.4983 Inf 18.5990
182.0067 Inf 18.6830
182.5151 Inf 18.6300
183.0235 Inf 18.5240
183.5319 Inf 18.5380
184.0403 Inf 18.4020
184.5487 Inf 18.1890
185.0571 Inf 17.8820
185.5655 Inf 17.9850
186.0739 Inf 17.3930
186.5823 Inf 17.2020
187.0907 Inf 17.2970
187.5991 Inf 17.2720
188.1075 Inf 17.2510
188.6159 Inf 17.2750
189.1243 Inf 17.7520
189.6327 Inf 18.0190
190.1411 Inf 17.9210
190.6495 Inf 17.5680
191.1579 Inf 17.1220
191.6663 Inf 16.6050
192.1747 Inf 16.6010
192.6831 Inf 16.5200
193.1914 Inf 16.5020
193.6998 Inf 16.7910
194.2082 Inf 16.6410
194.7166 Inf 16.7780
195.2250 Inf 16.6210
195.7334 Inf 16.4390
196.2418 Inf 16.0520
196.7502 Inf 16.3170
197.2586 Inf 16.2220
197.7670 Inf 16.0980
198.2754 Inf 16.3600
198.7838 Inf 16.7620
