~Version Information
VERS. 2.0 : CWLS LOG ASCII STANDARD - VERSION 2.0
WRAP. NO : One line per depth step

SLVN.  2.14.3.1 (64bit) : Silistener Version Number
DTVN. Ultima: 8.1.18.0 (64bit) : DTS Version Number

~Well Information
#MNEM.UNIT VALUE/NAME :DESCRIPTION 
STRT.M -0 : START DEPTH
STOP.M 5498.8389 : STOP DEPTH
STEP.M 0.5084 : STEP
NULL.M -9999 : NULL VALUE
COMP. EBS : COMPANY
WELL. EBST-4-3H : WELL
FLD. EBS_MOC : FIELD
LOC. S2_CAMP : LOCATION
SRVC.  : SERVICE COMPANY
DATE. 01/05/2023 : LOG DATE
CNTY.  : COUNTY
STAT.  : STATE
CTRY.  : COUNTRY
API.  : API NUMBER

~Curve Information
#MNEM.UNITS API CODES :DESCRIPTION OF MNEMONIC
DEPT.M	: Depth
TEMP.°C	: Baseline
TEMP.°C	: Fast (10s)

~Parameter Information
#MNEM.UNIT VALUE/NAME :DESCRIPTION 
DTSF. 1.000000 : DTS Stretch Factor
DTZO.M 0.00 : DTS Zero Offset

~A Log Data
# ...
5231.4209 Inf 77.6010
5231.9297 Inf 77.3010
5232.4380 Inf 77.9390
5232.9463 Inf 77.1820
5233.4546 Inf 78.0620
5233.9629 Inf 77.5120
5234.4717 Inf 77.3200
5234.9800 Inf 77.0810
5235.4883 Inf 77.1930
5235.9966 Inf 77.3360
5236.5049 Inf 77.6840
5237.0137 Inf 78.4240
5237.5220 Inf 78.1560
5238.0303 Inf 78.6080
5238.5386 Inf 78.3400
5239.0469 Inf 77.7880
5239.5557 Inf 77.4760
5240.0640 Inf 77.5550
5240.5723 Inf 77.8010
5241.0806 Inf 77.6200
5241.5889 Inf 78.4620
5242.0977 Inf 78.3290
5242.6060 Inf 78.2740
5243.1143 Inf 78.2770
5243.6226 Inf 77.4440
5244.1309 Inf 77.9880
5244.6396 Inf 77.2270
5245.1479 Inf 77.5640
5245.6562 Inf 78.1610
5246.1646 Inf 77.1430
5246.6733 Inf 77.7290
5247.1816 Inf 78.0280
5247.6899 Inf 78.5550
5248.1982 Inf 77.6720
5248.7065 Inf 77.9980
5249.2148 Inf 78.5370
5249.7236 Inf 77.1590
5250.2319 Inf 76.7050
5250.7402 Inf 77.6140
5251.2485 Inf 77.7300
5251.7568 Inf 78.3310
5252.2656 Inf 77.6400
5252.7739 Inf 77.6150
5253.2822 Inf 78.0620
5253.7905 Inf 77.8770
5254.2988 Inf 78.3630
5254.8076 Inf 78.0340
5255.3159 Inf 77.6500
5255.8242 Inf 77.6150
5256.3325 Inf 78.0410
5256.8408 Inf 77.2230
5257.3496 Inf 77.0130
5257.8579 Inf 77.9750
5258.3662 Inf 78.1390
5258.8745 Inf 77.3290
5259.3828 Inf 77.2680
5259.8916 Inf 77.5400
5260.3999 Inf 77.5260
5260.9082 Inf 77.4430
5261.4165 Inf 77.8060
5261.9248 Inf 77.6930
5262.4336 Inf 77.4860
5262.9419 Inf 77.6030
5263.4502 Inf 77.1210
5263.9585 Inf 77.9620
5264.4668 Inf 77.9030
5264.9756 Inf 78.3510
5265.4839 Inf 77.0860
5265.9922 Inf 77.4940
5266.5005 Inf 77.7470
5267.0088 Inf 77.8840
5267.5176 Inf 78.0120
5268.0259 Inf 77.7140
5268.5342 Inf 77.7660
5269.0425 Inf 77.1730
5269.5508 Inf 77.7210
5270.0596 Inf 77.6780
5270.5679 Inf 76.7750
5271.0762 Inf 77.2110
5271.5845 Inf 77.3900
5272.0928 Inf 78.0440
5272.6016 Inf 77.3030
5273.1099 Inf 77.5940
5273.6182 Inf 78.1130
5274.1265 Inf 77.5180
5274.6348 Inf 77.5810
5275.1436 Inf 77.0680
5275.6519 Inf 77.1540
5276.1602 Inf 78.3220
5276.6685 Inf 78.3630
5277.1768 Inf 78.0500
5277.6855 Inf 77.7950
5278.1938 Inf 77.3580
5278.7021 Inf 78.1290
5279.2104 Inf 77.9060
5279.7192 Inf 77.2020
5280.2275 Inf 76.8950
5280.7358 Inf 77.1940
5281.2441 Inf 77.7260
5281.7524 Inf 77.2160
5282.2612 Inf 77.4260
5282.7695 Inf 78.5680
5283.2778 Inf 78.0490
5283.7861 Inf 77.0820
5284.2944 Inf 78.5530
5284.8027 Inf 78.5130
5285.3115 Inf 77.3340
5285.8198 Inf 78.2150
5286.3281 Inf 77.5240
5286.8364 Inf 77.1790
5287.3447 Inf 77.4130
5287.8535 Inf 77.5570
5288.3618 Inf 77.2120
5288.8701 Inf 77.7200
5289.3784 Inf 77.4780
5289.8867 Inf 77.6300
5290.3955 Inf 77.2610
5290.9038 Inf 78.9070
5291.4121 Inf 77.6090
5291.9204 Inf 76.8290
5292.4287 Inf 77.5930
5292.9375 Inf 78.1320
5293.4458 Inf 77.8290
5293.9541 Inf 77.6760
5294.4624 Inf 77.7020
5294.9707 Inf 79.2330
5295.4795 Inf 78.3000
5295.9878 Inf 76.8880
5296.4961 Inf 77.2710
5297.0044 Inf 77.1040
5297.5127 Inf 77.8430
5298.0215 Inf 77.6800
5298.5298 Inf 78.0920
5299.0381 Inf 78.2000
5299.5464 Inf 77.9090
5300.0547 Inf 78.8640
5300.5635 Inf 77.4350
5301.0718 Inf 77.7160
5301.5801 Inf 77.7580
5302.0884 Inf 77.7730
5302.5967 Inf 77.0400
5303.1055 Inf 77.4680
5303.6138 Inf 77.8960
5304.1221 Inf 77.4480
5304.6304 Inf 78.2670
5305.1387 Inf 77.8200
5305.6475 Inf 77.9890
5306.1558 Inf 78.1260
5306.6641 Inf 77.9790
5307.1724 Inf 77.1910
5307.6807 Inf 77.7820
5308.1895 Inf 78.0300
5308.6978 Inf 77.2380
5309.2061 Inf 76.1540
5309.7144 Inf 77.5630
5310.2227 Inf 78.0230
5310.7314 Inf 77.9360
5311.2397 Inf 78.1800
5311.7480 Inf 76.9270
5312.2563 Inf 76.5370
5312.7651 Inf 77.3200
5313.2734 Inf 76.7580
5313.7817 Inf 77.6620
5314.2900 Inf 78.2790
5314.7983 Inf 77.7050
5315.3071 Inf 78.0460
5315.8154 Inf 78.4130
5316.3237 Inf 77.8120
5316.8320 Inf 79.0030
5317.3403 Inf 78.9840
5317.8491 Inf 78.0410
5318.3574 Inf 78.1900
5318.8657 Inf 77.9890
5319.3740 Inf 77.6730
5319.8823 Inf 76.9910
5320.3906 Inf 77.5270
5320.8994 Inf 77.3720
5321.4077 Inf 77.7430
5321.9160 Inf 77.0960
5322.4243 Inf 78.0130
5322.9326 Inf 77.3490
5323.4414 Inf 77.2730
5323.9497 Inf 77.2950
5324.4580 Inf 77.6210
5324.9663 Inf 77.9140
5325.4746 Inf 77.6790
5325.9834 Inf 78.7460
5326.4917 Inf 76.9410
5327.0000 Inf 77.1860
5327.5083 Inf 78.0380
5328.0166 Inf 77.5950
5328.5254 Inf 78.3810
5329.0337 Inf 78.6130
5329.5420 Inf 77.5130
5330.0503 Inf 77.5960
5330.5586 Inf 78.3380
5331.0674 Inf 78.5240
5331.5757 Inf 77.1510
5332.0840 Inf 77.5960
5332.5923 Inf 78.1880
5333.1006 Inf 77.6040
5333.6094 Inf 77.2910
5334.1177 Inf 78.0350
5334.6260 Inf 77.7460
5335.1343 Inf 77.9430
5335.6426 Inf 77.5790
5336.1514 Inf 77.7490
5336.6597 Inf 77.8490
5337.1680 Inf 78.4790
5337.6763 Inf 78.2010
5338.1846 Inf 78.5940
5338.6934 Inf 77.3090
5339.2017 Inf 78.4700
5339.7100 Inf 77.7160
5340.2183 Inf 78.1480
5340.7266 Inf 78.4130
5341.2354 Inf 78.0740
5341.7437 Inf 76.6520
5342.2520 Inf 77.2390
5342.7603 Inf 77.3880
5343.2690 Inf 77.9220
5343.7773 Inf 78.2580
5344.2856 Inf 77.5990
5344.7939 Inf 77.5170
5345.3022 Inf 77.4820
5345.8110 Inf 77.4560
5346.3193 Inf 77.5590
5346.8276 Inf 77.8760
5347.3359 Inf 78.0200
5347.8442 Inf 77.6710
5348.3530 Inf 77.4890
5348.8613 Inf 77.9600
5349.3696 Inf 77.2750
5349.8779 Inf 77.8220
5350.3862 Inf 77.4280
5350.8950 Inf 78.4360
5351.4033 Inf 78.1760
5351.9116 Inf 77.8510
5352.4199 Inf 77.2810
5352.9282 Inf 77.6410
5353.4365 Inf 77.3600
5353.9453 Inf 77.8310
5354.4536 Inf 77.3670
5354.9619 Inf 77.5690
5355.4702 Inf 77.9720
5355.9785 Inf 77.7970
5356.4873 Inf 76.7900
5356.9956 Inf 77.0930
5357.5039 Inf 77.2850
5358.0122 Inf 77.1480
5358.5205 Inf 77.9480
5359.0293 Inf 77.4960
5359.5376 Inf 78.8390
5360.0459 Inf 78.1210
5360.5542 Inf 78.1440
5361.0625 Inf 78.2460
5361.5713 Inf 78.5950
5362.0796 Inf 77.7430
5362.5879 Inf 77.7380
5363.0962 Inf 78.1200
5363.6045 Inf 77.2360
5364.1133 Inf 76.5540
5364.6216 Inf 77.3980
5365.1299 Inf 76.7960
5365.6382 Inf 77.7460
5366.1465 Inf 78.6000
5366.6553 Inf 78.3860
5367.1636 Inf 77.9010
5367.6719 Inf 77.8780
5368.1802 Inf 77.5890
5368.6885 Inf 78.4370
5369.1973 Inf 78.1660
5369.7056 Inf 77.7840
5370.2139 Inf 77.7480
5370.7222 Inf 77.4940
5371.2305 Inf 77.9970
5371.7393 Inf 78.0850
5372.2476 Inf 77.8060
5372.7559 Inf 77.8110
5373.2642 Inf 77.7620
5373.7725 Inf 77.8690
5374.2812 Inf 77.8290
5374.7896 Inf 77.2030
5375.2979 Inf 77.4300
5375.8062 Inf 77.3330
5376.3149 Inf 77.8670
5376.8232 Inf 77.8260
5377.3315 Inf 77.7260
5377.8398 Inf 77.9990
5378.3481 Inf 78.8680
5378.8569 Inf 77.0640
5379.3652 Inf 76.3960
5379.8735 Inf 78.2650
5380.3818 Inf 78.8110
5380.8901 Inf 77.2480
5381.3989 Inf 77.8020
5381.9072 Inf 77.5560
5382.4155 Inf 77.9740
5382.9238 Inf 78.5450
5383.4321 Inf 77.4050
5383.9409 Inf 76.8820
5384.4492 Inf 77.4010
5384.9575 Inf 77.4390
5385.4658 Inf 77.2430
5385.9741 Inf 79.5810
5386.4829 Inf 77.7640
5386.9912 Inf 77.9150
5387.4995 Inf 77.6450
5388.0078 Inf 77.7370
5388.5161 Inf 78.0230
5389.0244 Inf 78.3390
5389.5332 Inf 77.7010
5390.0415 Inf 76.9910
5390.5498 Inf 77.9570
5391.0581 Inf 77.3400
5391.5664 Inf 77.0060
5392.0752 Inf 77.1970
5392.5835 Inf 72.2030
5393.0918 Inf 64.8460
5393.6001 Inf 72.9770
5394.1084 Inf 21.3660
5394.6172 -Inf -38.1190
5395.1255 Inf 638.5280
5395.6338 -Inf -60.4440
5396.1421 Inf 34.6460
5396.6504 Inf 92.2700
5397.1592 Inf 74.4630
5397.6675 Inf 105.6420
5398.1758 Inf 119.5360
5398.6841 Inf 127.9650
5399.1924 Inf 120.4290
5399.7012 Inf 165.1570
5400.2095 Inf 127.2390
5400.7178 Inf 159.7940
5401.2261 Inf 106.0700
5401.7344 Inf 93.3120
5402.2432 Inf 101.5980
5402.7515 Inf 142.2620
5403.2598 Inf 99.7450
5403.7681 Inf 124.4870
5404.2764 Inf 107.7960
5404.7852 Inf 91.5090
5405.2935 Inf 121.8150
5405.8018 Inf 151.7530
5406.3101 Inf 117.1570
5406.8184 Inf 128.4170
5407.3271 Inf 91.0960
5407.8354 Inf 76.1090
5408.3437 Inf 160.9450
5408.8521 Inf 125.3520
5409.3608 Inf 135.7930
5409.8691 Inf 102.1770
5410.3774 Inf 81.7230
5410.8857 Inf 183.5010
5411.3940 Inf 150.4160
5411.9028 Inf 128.5920
5412.4111 Inf 149.8980
5412.9194 Inf 144.7820
5413.4277 Inf 128.9410
5413.9360 Inf 142.1060
5414.4448 Inf 168.6160
5414.9531 Inf 68.5680
5415.4614 Inf 164.7490
