~Version Information
VERS. 2.0 : CWLS LOG ASCII STANDARD - VERSION 2.0
WRAP. NO : One line per depth step

SLVN.  2.14.3.1 (64bit) : Silistener Version Number
DTVN. Ultima: 8.1.18.0 (64bit) : DTS Version Number

~Well Information
#MNEM.UNIT VALUE/NAME :DESCRIPTION 
STRT.M -0 : START DEPTH
STOP.M 5498.8389 : STOP DEPTH
STEP.M 0.5084 : STEP
NULL.M -9999 : NULL VALUE
COMP. EBS : COMPANY
WELL. EBST-4-3H : WELL
FLD. EBS_MOC : FIELD
LOC. S2_CAMP : LOCATION
SRVC.  : SERVICE COMPANY
DATE. 01/05/2023 : LOG DATE
CNTY.  : COUNTY
STAT.  : STATE
CTRY.  : COUNTRY
API.  : API NUMBER

~Curve Information
#MNEM.UNITS API CODES :DESCRIPTION OF MNEMONIC
DEPT.M	: Depth
TEMP.°C	: Baseline
TEMP.°C	: Fast (10s)

~Parameter Information
#MNEM.UNIT VALUE/NAME :DESCRIPTION 
DTSF. 1.000000 : DTS Stretch Factor
DTZO.M 0.00 : DTS Zero Offset

~A Log Data
# ...
392.9921 Inf 23.3830
393.5005 Inf 23.4620
394.0089 Inf 23.6600
394.5173 Inf 23.7340
395.0257 Inf 23.7740
395.5341 Inf 23.8090
396.0425 Inf 23.8510
396.5509 Inf 23.7920
397.0593 Inf 23.8850
397.5677 Inf 23.8590
398.0761 Inf 23.9630
398.5845 Inf 24.1650
399.0929 Inf 23.9890
399.6013 Inf 24.0460
400.1097 Inf 23.9620
400.6181 Inf 24.0730
401.1265 Inf 24.2370
401.6349 Inf 24.3400
402.1433 Inf 24.4170
402.6517 Inf 24.2380
403.1601 Inf 24.1950
403.6685 Inf 24.1410
404.1768 Inf 24.1860
404.6852 Inf 24.4590
405.1936 Inf 24.6160
405.7020 Inf 24.2790
406.2104 Inf 24.4890
406.7188 Inf 24.4830
407.2272 Inf 24.3680
407.7356 Inf 24.5160
408.2440 Inf 24.5310
408.7524 Inf 24.3810
409.2608 Inf 24.2870
409.7692 Inf 24.3170
410.2776 Inf 24.1830
410.7860 Inf 24.3210
411.2944 Inf 24.2730
411.8028 Inf 24.3710
412.3112 Inf 24.5750
412.8196 Inf 24.5700
413.3280 Inf 24.6340
413.8364 Inf 24.6820
414.3448 Inf 24.6700
414.8532 Inf 24.6040
415.3616 Inf 24.4490
415.8700 Inf 24.3840
416.3784 Inf 24.4650
416.8868 Inf 24.5410
417.3952 Inf 24.5520
417.9036 Inf 24.8160
418.4120 Inf 24.7220
418.9204 Inf 24.6220
419.4288 Inf 24.6720
419.9372 Inf 24.5210
420.4456 Inf 24.6330
420.9540 Inf 24.6470
421.4624 Inf 24.6850
421.9708 Inf 24.6650
422.4792 Inf 24.5970
422.9876 Inf 24.5030
423.4960 Inf 24.5090
424.0044 Inf 24.7670
424.5128 Inf 24.7830
425.0212 Inf 24.8280
425.5296 Inf 24.9210
426.0380 Inf 24.8180
426.5464 Inf 24.7710
427.0548 Inf 24.6760
427.5632 Inf 24.5790
428.0716 Inf 24.7050
428.5800 Inf 24.6830
429.0884 Inf 24.7800
429.5968 Inf 24.7650
430.1052 Inf 24.7960
430.6136 Inf 24.8770
431.1220 Inf 24.9610
431.6304 Inf 24.9910
432.1388 Inf 24.9650
432.6472 Inf 25.0720
433.1556 Inf 25.0450
433.6640 Inf 24.6860
434.1724 Inf 24.7940
434.6808 Inf 24.9640
435.1892 Inf 24.9980
435.6976 Inf 24.9910
436.2060 Inf 24.9340
436.7144 Inf 25.2490
437.2228 Inf 25.1430
437.7312 Inf 25.0820
438.2396 Inf 25.0890
438.7480 Inf 25.2130
439.2563 Inf 25.1720
439.7647 Inf 24.9810
440.2731 Inf 24.8490
440.7815 Inf 25.0150
441.2899 Inf 25.1430
441.7983 Inf 25.2090
442.3067 Inf 25.2130
442.8151 Inf 25.1660
443.3235 Inf 25.0560
443.8319 Inf 25.0000
444.3403 Inf 25.1970
444.8487 Inf 25.1970
445.3571 Inf 25.2440
445.8655 Inf 25.0780
446.3739 Inf 25.0810
446.8823 Inf 25.2350
447.3907 Inf 25.1780
447.8991 Inf 25.1830
448.4075 Inf 25.1790
448.9159 Inf 25.2640
449.4243 Inf 25.1870
449.9327 Inf 25.1550
450.4411 Inf 25.1850
450.9495 Inf 25.2560
451.4579 Inf 25.2830
451.9663 Inf 25.4130
452.4747 Inf 25.2580
452.9831 Inf 25.1220
453.4915 Inf 25.2280
453.9999 Inf 25.2690
454.5083 Inf 25.1160
455.0167 Inf 25.0960
455.5251 Inf 25.0570
456.0335 Inf 25.0850
456.5419 Inf 25.3360
457.0503 Inf 25.2970
457.5587 Inf 25.2930
458.0671 Inf 25.2800
458.5755 Inf 25.3320
459.0839 Inf 25.2680
459.5923 Inf 25.3460
460.1007 Inf 25.3510
460.6091 Inf 25.1460
461.1175 Inf 25.1570
461.6259 Inf 25.3110
462.1343 Inf 25.1790
462.6427 Inf 25.0640
463.1511 Inf 25.1150
463.6595 Inf 25.2230
464.1679 Inf 25.2570
464.6763 Inf 25.3520
465.1847 Inf 25.2080
465.6931 Inf 25.2650
466.2015 Inf 25.1790
466.7099 Inf 25.0970
467.2183 Inf 25.0460
467.7267 Inf 25.1380
468.2351 Inf 25.2450
468.7435 Inf 25.1710
469.2519 Inf 25.2030
469.7603 Inf 25.1240
470.2687 Inf 25.1390
470.7771 Inf 25.1440
471.2855 Inf 25.4240
471.7939 Inf 25.4370
472.3023 Inf 25.2100
472.8107 Inf 25.3150
473.3191 Inf 25.2340
473.8275 Inf 25.1720
474.3358 Inf 25.2500
474.8442 Inf 25.1760
475.3526 Inf 25.2010
475.8610 Inf 25.3420
476.3694 Inf 25.2960
476.8778 Inf 25.2840
477.3862 Inf 25.4940
477.8946 Inf 25.4030
478.4030 Inf 25.3580
478.9114 Inf 25.3650
479.4198 Inf 25.4330
479.9282 Inf 25.2920
480.4366 Inf 25.2250
480.9450 Inf 25.4120
481.4534 Inf 25.2520
481.9618 Inf 25.2070
482.4702 Inf 25.1790
482.9786 Inf 25.1820
483.4870 Inf 25.4470
483.9954 Inf 25.4550
484.5038 Inf 25.3710
485.0122 Inf 25.2260
485.5206 Inf 25.3330
486.0290 Inf 25.5260
486.5374 Inf 25.3370
487.0458 Inf 25.4520
487.5542 Inf 25.4050
488.0626 Inf 25.3190
488.5710 Inf 25.4010
489.0794 Inf 25.2930
489.5878 Inf 25.4130
490.0962 Inf 25.4530
490.6046 Inf 25.5340
491.1130 Inf 25.4150
491.6214 Inf 25.4680
492.1298 Inf 25.3940
492.6382 Inf 25.4050
493.1466 Inf 25.1850
493.6550 Inf 25.1340
494.1634 Inf 25.1710
494.6718 Inf 25.3190
495.1802 Inf 25.2590
495.6886 Inf 25.3320
496.1970 Inf 25.4450
496.7054 Inf 25.4340
497.2138 Inf 25.4710
497.7222 Inf 25.4530
498.2306 Inf 25.4480
498.7390 Inf 25.3380
499.2474 Inf 25.3010
499.7558 Inf 25.2920
500.2642 Inf 25.2180
500.7726 Inf 25.1470
501.2810 Inf 25.2840
501.7894 Inf 25.3000
502.2978 Inf 25.1960
502.8062 Inf 25.2290
503.3146 Inf 25.4070
503.8230 Inf 25.3960
504.3314 Inf 25.4220
504.8398 Inf 25.4670
505.3482 Inf 25.2590
505.8566 Inf 25.0550
506.3650 Inf 25.1460
506.8734 Inf 25.3050
507.3818 Inf 25.2720
507.8902 Inf 25.2370
508.3986 Inf 25.1620
508.9070 Inf 25.1760
509.4153 Inf 25.2790
509.9237 Inf 25.2810
510.4321 Inf 25.3570
510.9405 Inf 25.4140
511.4489 Inf 25.2240
511.9573 Inf 25.1250
512.4657 Inf 25.0630
512.9741 Inf 25.0240
513.4825 Inf 25.0680
513.9909 Inf 25.2020
514.4993 Inf 25.1630
515.0077 Inf 25.1960
515.5161 Inf 25.3350
516.0245 Inf 25.3420
516.5329 Inf 25.4830
517.0413 Inf 25.5110
517.5497 Inf 25.4300
518.0581 Inf 25.3310
518.5665 Inf 25.1260
519.0749 Inf 25.0710
519.5833 Inf 25.0880
520.0917 Inf 25.1250
520.6001 Inf 25.2580
521.1085 Inf 25.1130
521.6169 Inf 25.2150
522.1253 Inf 25.2680
522.6337 Inf 25.4050
523.1421 Inf 25.3780
523.6505 Inf 25.4340
524.1589 Inf 25.4790
524.6673 Inf 25.3760
525.1757 Inf 25.1700
525.6841 Inf 25.0290
526.1925 Inf 24.9990
526.7009 Inf 24.9860
527.2093 Inf 25.0740
527.7177 Inf 25.0690
528.2261 Inf 25.1680
528.7345 Inf 25.3050
529.2429 Inf 25.2920
529.7513 Inf 25.3410
530.2597 Inf 25.3270
530.7681 Inf 25.5410
531.2765 Inf 25.3290
531.7849 Inf 25.3070
532.2933 Inf 25.1160
532.8017 Inf 24.9320
533.3101 Inf 25.1300
533.8185 Inf 25.1630
534.3269 Inf 25.0740
534.8353 Inf 25.0790
535.3437 Inf 25.3100
535.8521 Inf 25.2940
536.3605 Inf 25.2100
536.8689 Inf 25.2440
537.3773 Inf 25.3580
537.8857 Inf 25.1730
538.3941 Inf 25.0000
538.9025 Inf 24.9180
539.4109 Inf 25.0730
539.9193 Inf 24.9350
540.4277 Inf 25.0780
540.9361 Inf 25.1410
541.4445 Inf 25.1340
541.9529 Inf 25.1060
542.4613 Inf 25.1650
542.9697 Inf 25.3160
543.4781 Inf 25.3160
543.9865 Inf 25.2080
544.4948 Inf 24.9580
545.0032 Inf 24.9590
545.5116 Inf 25.0220
546.0200 Inf 24.9710
546.5284 Inf 24.7750
547.0368 Inf 24.8750
547.5452 Inf 25.0630
548.0536 Inf 25.0950
548.5620 Inf 25.0310
549.0704 Inf 25.2520
549.5788 Inf 25.3080
550.0872 Inf 25.3050
550.5956 Inf 25.1390
551.1040 Inf 24.8330
551.6124 Inf 24.8350
552.1208 Inf 24.8780
552.6292 Inf 24.7120
553.1376 Inf 24.8240
553.6460 Inf 24.8880
554.1544 Inf 25.0760
554.6628 Inf 25.1970
555.1712 Inf 25.2820
555.6796 Inf 25.2070
556.1880 Inf 25.0880
556.6964 Inf 25.0450
557.2048 Inf 24.7680
557.7132 Inf 24.6080
558.2216 Inf 24.8060
558.7300 Inf 24.8340
559.2384 Inf 24.8140
559.7468 Inf 24.7410
560.2552 Inf 24.7970
560.7636 Inf 24.8790
561.2720 Inf 25.1650
561.7804 Inf 25.1470
562.2888 Inf 25.1180
562.7972 Inf 25.2590
563.3056 Inf 25.1610
563.8140 Inf 25.0050
564.3224 Inf 24.7180
564.8308 Inf 24.8630
565.3392 Inf 24.7640
565.8476 Inf 24.7490
566.3560 Inf 24.7220
566.8644 Inf 24.7000
567.3728 Inf 24.7700
567.8812 Inf 24.9150
568.3896 Inf 24.8170
568.8980 Inf 24.9070
569.4064 Inf 25.0940
569.9148 Inf 24.8880
570.4232 Inf 24.8840
570.9316 Inf 24.7370
571.4400 Inf 24.6730
571.9484 Inf 24.6960
572.4568 Inf 24.4850
572.9652 Inf 24.5260
573.4736 Inf 24.7530
573.9820 Inf 24.9980
574.4904 Inf 25.0590
574.9988 Inf 24.8840
575.5072 Inf 24.9080
576.0156 Inf 24.8290
576.5240 Inf 24.6480
577.0324 Inf 24.7120
577.5408 Inf 24.6570
578.0492 Inf 24.5000
578.5576 Inf 24.4690
579.0660 Inf 24.4400
579.5743 Inf 24.5930
580.0827 Inf 24.7370
580.5911 Inf 24.6050
581.0995 Inf 24.6020
581.6079 Inf 24.6930
582.1163 Inf 24.6710
582.6247 Inf 24.6180
583.1331 Inf 24.5930
583.6415 Inf 24.5290
584.1499 Inf 24.4540
584.6583 Inf 24.5250
585.1667 Inf 24.4690
585.6751 Inf 24.3530
586.1835 Inf 24.5250
