~Version Information
VERS. 2.0 : CWLS LOG ASCII STANDARD - VERSION 2.0
WRAP. NO : One line per depth step

SLVN.  2.14.3.1 (64bit) : Silistener Version Number
DTVN. Ultima: 8.1.18.0 (64bit) : DTS Version Number

~Well Information
#MNEM.UNIT VALUE/NAME :DESCRIPTION 
STRT.M -0 : START DEPTH
STOP.M 5498.8389 : STOP DEPTH
STEP.M 0.5084 : STEP
NULL.M -9999 : NULL VALUE
COMP. EBS : COMPANY
WELL. EBST-4-3H : WELL
FLD. EBS_MOC : FIELD
LOC. S2_CAMP : LOCATION
SRVC.  : SERVICE COMPANY
DATE. 01/05/2023 : LOG DATE
CNTY.  : COUNTY
STAT.  : STATE
CTRY.  : COUNTRY
API.  : API NUMBER

~Curve Information
#MNEM.UNITS API CODES :DESCRIPTION OF MNEMONIC
DEPT.M	: Depth
TEMP.°C	: Baseline
TEMP.°C	: Fast (10s)

~Parameter Information
#MNEM.UNIT VALUE/NAME :DESCRIPTION 
DTSF. 1.000000 : DTS Stretch Factor
DTZO.M 0.00 : DTS Zero Offset

~A Log Data
# ...
2825.6792 Inf 53.0370
2826.1875 Inf 53.3250
2826.6958 Inf 53.3260
2827.2043 Inf 53.1220
2827.7126 Inf 53.2750
2828.2212 Inf 53.4280
2828.7295 Inf 53.9960
2829.2378 Inf 53.6990
2829.7463 Inf 53.7800
2830.2546 Inf 53.3740
2830.7632 Inf 53.7040
2831.2715 Inf 53.6710
2831.7798 Inf 53.4720
2832.2883 Inf 53.5540
2832.7966 Inf 54.0710
2833.3052 Inf 53.9230
2833.8135 Inf 53.8240
2834.3220 Inf 53.6180
2834.8303 Inf 53.7900
2835.3386 Inf 53.5580
2835.8472 Inf 53.6660
2836.3555 Inf 53.7500
2836.8640 Inf 53.9690
2837.3723 Inf 53.3120
2837.8806 Inf 53.9370
2838.3892 Inf 53.8600
2838.8975 Inf 53.5480
2839.4060 Inf 53.5280
2839.9143 Inf 53.3400
2840.4226 Inf 53.6930
2840.9312 Inf 53.5580
2841.4395 Inf 53.5500
2841.9480 Inf 53.4250
2842.4563 Inf 53.9590
2842.9646 Inf 53.7710
2843.4731 Inf 53.9280
2843.9814 Inf 54.0100
2844.4900 Inf 54.0610
2844.9983 Inf 53.9370
2845.5066 Inf 54.0380
2846.0151 Inf 54.0690
2846.5234 Inf 53.9750
2847.0320 Inf 54.0900
2847.5403 Inf 54.3160
2848.0486 Inf 54.0990
2848.5571 Inf 54.1850
2849.0654 Inf 54.4360
2849.5740 Inf 54.2950
2850.0823 Inf 54.4740
2850.5908 Inf 54.2690
2851.0991 Inf 54.5120
2851.6074 Inf 54.4410
2852.1160 Inf 54.2290
2852.6243 Inf 54.2420
2853.1328 Inf 54.0630
2853.6411 Inf 54.6470
2854.1494 Inf 54.4860
2854.6580 Inf 54.4910
2855.1663 Inf 54.6130
2855.6748 Inf 54.7500
2856.1831 Inf 54.6450
2856.6914 Inf 54.4940
2857.2000 Inf 54.5160
2857.7083 Inf 54.5970
2858.2168 Inf 54.5040
2858.7251 Inf 54.6940
2859.2334 Inf 54.4610
2859.7419 Inf 54.9250
2860.2502 Inf 54.7830
2860.7588 Inf 54.8230
2861.2671 Inf 54.5960
2861.7754 Inf 54.7090
2862.2837 Inf 54.7940
2862.7922 Inf 54.6910
2863.3005 Inf 54.7500
2863.8091 Inf 54.3820
2864.3174 Inf 54.1820
2864.8257 Inf 54.7870
2865.3342 Inf 54.9210
2865.8425 Inf 54.6130
2866.3511 Inf 54.4080
2866.8594 Inf 54.7020
2867.3679 Inf 54.6000
2867.8762 Inf 54.5070
2868.3845 Inf 54.5150
2868.8931 Inf 54.9520
2869.4014 Inf 54.6470
2869.9099 Inf 54.7870
2870.4182 Inf 54.5630
2870.9265 Inf 54.5490
2871.4351 Inf 54.6580
2871.9434 Inf 54.9550
2872.4519 Inf 54.8510
2872.9602 Inf 54.8210
2873.4685 Inf 54.9360
2873.9771 Inf 54.8860
2874.4854 Inf 55.2050
2874.9939 Inf 54.9210
2875.5022 Inf 54.7210
2876.0105 Inf 54.7000
2876.5190 Inf 54.5790
2877.0273 Inf 54.4480
2877.5359 Inf 54.5600
2878.0442 Inf 55.0410
2878.5525 Inf 54.9160
2879.0610 Inf 55.0160
2879.5693 Inf 54.9500
2880.0779 Inf 54.8480
2880.5862 Inf 55.1000
2881.0945 Inf 55.0970
2881.6030 Inf 55.2200
2882.1113 Inf 55.2830
2882.6199 Inf 55.3910
2883.1282 Inf 55.0660
2883.6367 Inf 55.1200
2884.1450 Inf 54.7520
2884.6533 Inf 55.4430
2885.1619 Inf 55.2710
2885.6702 Inf 55.3750
2886.1787 Inf 55.4020
2886.6870 Inf 55.0840
2887.1953 Inf 55.2740
2887.7039 Inf 55.4200
2888.2122 Inf 55.1150
2888.7207 Inf 55.2180
2889.2290 Inf 55.5170
2889.7373 Inf 55.5780
2890.2458 Inf 55.3360
2890.7542 Inf 55.4380
2891.2627 Inf 55.4190
2891.7710 Inf 54.9680
2892.2793 Inf 55.1410
2892.7878 Inf 55.3440
2893.2961 Inf 55.0640
2893.8047 Inf 55.3280
2894.3130 Inf 55.5120
2894.8213 Inf 55.2810
2895.3298 Inf 55.6470
2895.8381 Inf 55.4680
2896.3464 Inf 55.6620
2896.8550 Inf 55.4270
2897.3633 Inf 55.6810
2897.8716 Inf 55.5210
2898.3801 Inf 55.2690
2898.8884 Inf 55.5430
2899.3970 Inf 55.4410
2899.9053 Inf 55.2620
2900.4138 Inf 55.6470
2900.9221 Inf 55.6930
2901.4304 Inf 55.5270
2901.9390 Inf 55.1360
2902.4473 Inf 55.3920
2902.9558 Inf 55.3600
2903.4641 Inf 55.3470
2903.9724 Inf 55.5630
2904.4810 Inf 55.4630
2904.9893 Inf 55.8790
2905.4978 Inf 55.6320
2906.0061 Inf 55.9450
2906.5144 Inf 55.3180
2907.0229 Inf 55.4840
2907.5312 Inf 55.4860
2908.0398 Inf 55.7130
2908.5481 Inf 55.5360
2909.0564 Inf 55.3350
2909.5649 Inf 55.5280
2910.0732 Inf 55.7930
2910.5818 Inf 55.2430
2911.0901 Inf 55.3830
2911.5984 Inf 55.7420
2912.1069 Inf 55.7680
2912.6152 Inf 55.9180
2913.1238 Inf 55.3230
2913.6321 Inf 55.4770
2914.1404 Inf 55.8980
2914.6489 Inf 55.8730
2915.1572 Inf 55.7520
2915.6658 Inf 55.6290
2916.1741 Inf 55.3450
2916.6826 Inf 56.0190
2917.1909 Inf 55.9740
2917.6992 Inf 55.9460
2918.2078 Inf 55.8770
2918.7161 Inf 56.1170
2919.2246 Inf 56.1220
2919.7329 Inf 56.1860
2920.2412 Inf 56.0640
2920.7498 Inf 55.5960
2921.2581 Inf 55.8630
2921.7666 Inf 55.7980
2922.2749 Inf 55.8980
2922.7832 Inf 55.8770
2923.2917 Inf 55.9910
2923.8000 Inf 56.4100
2924.3086 Inf 56.2060
2924.8169 Inf 56.0970
2925.3252 Inf 55.9710
2925.8337 Inf 55.7780
2926.3420 Inf 55.8500
2926.8506 Inf 56.2680
2927.3589 Inf 56.3400
2927.8672 Inf 56.2550
2928.3757 Inf 56.0320
2928.8840 Inf 56.0060
2929.3926 Inf 56.2740
2929.9009 Inf 56.1030
2930.4092 Inf 56.1740
2930.9177 Inf 55.9120
2931.4260 Inf 56.4050
2931.9343 Inf 56.1220
2932.4429 Inf 55.9410
2932.9512 Inf 55.9940
2933.4597 Inf 56.4320
2933.9680 Inf 56.6660
2934.4763 Inf 56.7180
2934.9849 Inf 56.4280
2935.4932 Inf 56.2990
2936.0017 Inf 56.3910
2936.5100 Inf 56.1400
2937.0183 Inf 56.5480
2937.5269 Inf 56.2880
2938.0352 Inf 56.1860
2938.5437 Inf 56.9130
2939.0520 Inf 56.8960
2939.5603 Inf 56.3060
2940.0688 Inf 56.5190
2940.5771 Inf 56.4810
2941.0857 Inf 56.5890
2941.5940 Inf 56.8000
2942.1023 Inf 56.9600
2942.6108 Inf 56.6670
2943.1191 Inf 56.7790
2943.6277 Inf 56.5800
2944.1360 Inf 56.8350
2944.6443 Inf 56.8480
2945.1528 Inf 56.7220
2945.6611 Inf 56.8460
2946.1697 Inf 56.8360
2946.6780 Inf 56.5630
2947.1863 Inf 56.6140
2947.6948 Inf 56.9250
2948.2031 Inf 56.2880
2948.7117 Inf 56.6900
2949.2200 Inf 56.9450
2949.7285 Inf 57.0030
2950.2368 Inf 56.8580
2950.7451 Inf 56.7660
2951.2537 Inf 56.7800
2951.7620 Inf 57.0430
2952.2705 Inf 56.7580
2952.7788 Inf 56.8390
2953.2871 Inf 56.6000
2953.7957 Inf 56.8130
2954.3040 Inf 57.0560
2954.8125 Inf 56.6240
2955.3208 Inf 56.7990
2955.8291 Inf 56.5560
2956.3376 Inf 56.8380
2956.8459 Inf 56.7490
2957.3545 Inf 56.5080
2957.8628 Inf 56.8810
2958.3711 Inf 57.0120
2958.8796 Inf 57.3200
2959.3879 Inf 56.6020
2959.8965 Inf 56.4450
2960.4048 Inf 56.7810
2960.9131 Inf 56.5650
2961.4216 Inf 56.3950
2961.9299 Inf 56.9220
2962.4385 Inf 56.7160
2962.9468 Inf 56.8080
2963.4551 Inf 56.5190
2963.9636 Inf 56.8650
2964.4719 Inf 57.2820
2964.9805 Inf 57.0430
2965.4888 Inf 56.6170
2965.9973 Inf 57.0210
2966.5056 Inf 56.8860
2967.0139 Inf 57.2490
2967.5222 Inf 56.8810
2968.0308 Inf 57.0480
2968.5391 Inf 57.2820
2969.0476 Inf 57.2900
2969.5559 Inf 57.0270
2970.0642 Inf 56.8200
2970.5728 Inf 56.7370
2971.0811 Inf 56.8500
2971.5896 Inf 56.7180
2972.0979 Inf 56.7690
2972.6062 Inf 56.7510
2973.1147 Inf 57.0130
2973.6230 Inf 57.1190
2974.1316 Inf 57.3440
2974.6399 Inf 57.0310
2975.1482 Inf 57.1170
2975.6567 Inf 57.1180
2976.1650 Inf 57.3470
2976.6736 Inf 57.1710
2977.1819 Inf 56.9860
2977.6902 Inf 57.3240
2978.1987 Inf 57.6120
2978.7070 Inf 57.3000
2979.2156 Inf 57.0840
2979.7239 Inf 57.2650
2980.2324 Inf 57.5320
2980.7407 Inf 57.0300
2981.2490 Inf 56.8360
2981.7576 Inf 57.0090
2982.2659 Inf 57.5220
2982.7744 Inf 57.4420
2983.2827 Inf 57.2400
2983.7910 Inf 57.4410
2984.2996 Inf 57.4830
2984.8079 Inf 57.7540
2985.3164 Inf 57.2840
2985.8247 Inf 57.4630
2986.3330 Inf 57.8390
2986.8416 Inf 57.3810
2987.3499 Inf 57.3100
2987.8584 Inf 57.7430
2988.3667 Inf 57.7700
2988.8750 Inf 57.6930
2989.3835 Inf 57.3790
2989.8918 Inf 57.3850
2990.4004 Inf 57.1320
2990.9087 Inf 56.9920
2991.4170 Inf 57.3540
2991.9255 Inf 57.5690
2992.4338 Inf 57.4730
2992.9424 Inf 57.2840
2993.4507 Inf 57.2450
2993.9590 Inf 57.1460
2994.4675 Inf 57.0020
2994.9758 Inf 57.1180
2995.4844 Inf 57.4070
2995.9927 Inf 57.5270
2996.5012 Inf 57.2810
2997.0095 Inf 57.3940
2997.5178 Inf 57.0580
2998.0264 Inf 57.3790
2998.5347 Inf 57.6550
2999.0432 Inf 57.4170
2999.5515 Inf 57.4700
3000.0598 Inf 57.2100
3000.5684 Inf 57.5760
3001.0767 Inf 57.4940
3001.5850 Inf 57.6860
3002.0935 Inf 57.5450
3002.6018 Inf 57.1680
3003.1101 Inf 57.0860
3003.6187 Inf 57.5210
3004.1270 Inf 57.8370
3004.6355 Inf 57.5170
3005.1438 Inf 57.5270
3005.6521 Inf 57.3610
3006.1606 Inf 57.6570
3006.6689 Inf 57.5980
3007.1775 Inf 57.6340
3007.6858 Inf 57.6600
3008.1941 Inf 57.0900
3008.7026 Inf 57.2570
3009.2109 Inf 57.6170
3009.7195 Inf 57.4230
3010.2278 Inf 57.3160
